        [
            {
                "index":20768,
                "id":157704986,
                "title":"\u5e15\u5e15\u73cd\u5473",
                "address":"\u9752\u79c0\u533a\u6842\u6625\u8def5\u53f7\u4f73\u8fd0\u516c\u5bd31\u5c42113\u53f7\u94fa\u9762\uff08\u5e7f\u897f\u4eba\u624d\u5927\u53a6\u659c\u5bf9\u9762\uff09",
                "avgprice":15.0,
                "latitude":22.80837,
                "longitude":108.36421,
                "avgscore":5.0,
                "comments":1244,
                "backCateName":"\u996e\u54c1\u5e97",
                "areaname":"\u7405\u897f",
                "region":"\u9752\u79c0\u533a",
                "isMain":false,
                "city":"\u5357\u5b81"
            },
            {
                "index":13682,"id":193220369,"title":"\u871c\u96ea\u51b0\u57ce","address":"\u7ecf\u5f00\u533a\u7d2b\u84ec\u8def\u9526\u7ee3\u57ce\u5e02\u4e4b\u5149A\u533a101\u53f7","avgprice":6.0,"latitude":31.74706,"longitude":117.2297,"avgscore":0.0,"comments":11,"backCateName":"\u51b0\u6dc7\u6dcb","areaname":"\u7ecf\u5f00\u533a","region":"\u7ecf\u5f00\u533a","isMain":false,"city":"\u5408\u80a5"},{"index":18800,"id":94986355,"title":"\u534e\u83b1\u58eb\u00b7\u70b8\u9e21\u6c49\u5821","address":"\u6d2a\u5c71\u533a\u4e1c\u6e56\u65b0\u6280\u672f\u5f00\u53d1\u533a\u9f99\u57ce\u8def\u9526\u7ee3\u9f99\u57ce23\u680b1\u697c5-2\u5ba4","avgprice":15.0,"latitude":30.465808,"longitude":114.386813,"avgscore":5.0,"comments":920,"backCateName":"\u897f\u5f0f\u5feb\u9910\/\u6c49\u5821","areaname":"\u5149\u8c37\/\u9c81\u5df7","region":"\u6d2a\u5c71\u533a","isMain":false,"city":"\u6b66\u6c49"},{"index":22303,"id":41937414,"title":"\u5feb\u4e50\u67e0\u6aac","address":"\u6b66\u4faf\u533a\u5929\u5e9c\u5927\u9053\u5317\u6bb51700\u53f7\u65b0\u4e16\u7eaa\u73af\u7403\u4e2d\u5fc3B1\u5c42","avgprice":20.0,"latitude":30.567789,"longitude":104.064893,"avgscore":4.9,"comments":178,"backCateName":"\u5976\u8336\/\u679c\u6c41","areaname":"\u73af\u7403\u4e2d\u5fc3","region":"\u6b66\u4faf\u533a","isMain":true,"city":"\u6210\u90fd"},{"index":16154,"id":169642622,"title":"\u4e66\u4ea6\u70e7\u4ed9\u8349","address":"\u5357\u660c\u53bf\u9f99\u5cad\u8def\u6c5f\u897f\u5e08\u8303\u5927\u5b66\u56db\u98df\u5802\u5317\u9762","avgprice":12.0,"latitude":28.68334,"longitude":116.031549,"avgscore":3.5,"comments":5,"backCateName":"\u5976\u8336\/\u679c\u6c41","areaname":"\u7476\u6e56","region":"\u5357\u660c\u53bf\u9f99\u5cad\u8def\u6c5f\u897f\u5e08\u8303\u5927\u5b66\u56db\u98df\u5802\u5317\u9762\u533a","isMain":true,"city":"\u5357\u660c"},{"index":5882,"id":1535689839,"title":"\u6d54\u8336","address":"\u6865\u897f\u533a\u88d5\u534e\u897f\u8def\u4e0e\u5357\u5c0f\u8857\u4ea4\u53c9\u53e3\u5317\u884c50\u7c73\u8def\u4e1c","avgprice":15.0,"latitude":38.036937,"longitude":114.484493,"avgscore":4.3,"comments":18,"backCateName":"\u5976\u8336\/\u679c\u6c41","areaname":"\u5357\u82b1\u56ed\u6b65\u884c\u8857","region":"\u6865\u897f\u533a","isMain":true,"city":"\u77f3\u5bb6\u5e84"},{"index":23107,"id":113348045,"title":"\u5feb\u4e50\u67e0\u6aac","address":"\u5357\u660e\u533a\u89e3\u653e\u8def100\u53f7\u9e3f\u901a\u57ce\u8d2d\u7269\u4e2d\u5fc32\u5c42","avgprice":20.0,"latitude":26.558018,"longitude":106.70833,"avgscore":5.0,"comments":268,"backCateName":"\u5976\u8336\/\u679c\u6c41","areaname":"\u9e3f\u901a\u57ce","region":"\u5357\u660e\u533a","isMain":true,"city":"\u8d35\u9633"},{"index":1278,"id":1681554029,"title":"\u559c\u8336","address":"\u95f5\u884c\u533a\u6caa\u95f5\u8def6088\u53f7\u88ab\u79f0\u4e3a\u201c\u51ef\u5fb7\u9f99\u4e4b\u68a6\u95f5\u884c-\u5546\u573a\u201d01-02\/03\u53f7","avgprice":31.0,"latitude":31.1081,"longitude":121.37875,"avgscore":4.0,"comments":0,"backCateName":"\u5976\u8336\/\u679c\u6c41","areaname":"\u8398\u5e84","region":"\u95f5\u884c\u533a","isMain":true,"city":"\u4e0a\u6d77"},{"index":16746,"id":185073062,"title":"\u963f\u6c34\u5927\u676f\u8336","address":"\u5e02\u4e2d\u533a\u5efa\u8bbe\u8def90\u53f7\u5929\u6da6\u82d14\u53f7\u697c3\u5355\u5143102\u53f7","avgprice":14.0,"latitude":36.630287,"longitude":116.987523,"avgscore":3.7,"comments":36,"backCateName":"\u5976\u8336\/\u679c\u6c41","areaname":"\u821c\u8015\u56fd\u9645\u4f1a\u5c55\u4e2d\u5fc3","region":"\u5e02\u4e2d\u533a","isMain":true,"city":"\u6d4e\u5357"},{"index":6763,"id":1943830702,"title":"\u4e66\u4ea6\u70e7\u4ed9\u8349","address":"\u674f\u82b1\u5cad\u533a\u89e3\u653e\u8def\u4e07\u8fbe\u5e7f\u573a\u4e07\u8fbe\u5916\u57ce\u968d\u5e99\u5e7f\u573a","avgprice":12.0,"latitude":37.882749,"longitude":112.561128,"avgscore":3.4,"comments":143,"backCateName":"\u5976\u8336\/\u679c\u6c41","areaname":"\u4e07\u8fbe\u5e7f\u573a","region":"\u674f\u82b1\u5cad\u533a","isMain":true,"city":"\u592a\u539f"},{"index":9173,"id":40355865,"title":"\u5fb7\u514b\u58eb","address":"\u8fbd\u4e2d\u53bf\u653f\u5e9c\u8def130\u53f7\u8c6a\u6797\u8d2d\u7269\u4e2d\u5fc3","avgprice":25.0,"latitude":41.51187,"longitude":122.730694,"avgscore":4.7,"comments":118,"backCateName":"\u897f\u5f0f\u5feb\u9910\/\u6c49\u5821","areaname":"\u5317\u4e00\u8def","region":"\u8fbd\u4e2d\u53bf\u653f\u5e9c\u8def130\u53f7\u8c6a\u6797\u8d2d\u7269\u4e2d\u5fc3\u533a","isMain":false,"city":"\u6c88\u9633"},{"index":8839,"id":52133481,"title":"MY.girl\u871c\u83d3","address":"\u6d51\u5357\u533a\u767d\u5854\u8857380\u53f7\u6c88\u9633\u57ce\u5e02\u5efa\u8bbe\u5b66\u96623\u53f7\u697c7\u95e8","avgprice":14.0,"latitude":41.677827,"longitude":123.417335,"avgscore":4.0,"comments":5,"backCateName":"\u5976\u8336\/\u679c\u6c41","areaname":"\u6d51\u5357\u533a","region":"\u6d51\u5357\u533a","isMain":true,"city":"\u6c88\u9633"},{"index":7961,"id":6405544,"title":"\u5fb7\u514b\u58eb","address":"\u91d1\u5ddd\u5f00\u53d1\u533a\u91d1\u6d77\u8def\u91d1\u5ddd\u96c5\u683c\u65f6\u4ee3\u5e7f\u573a1\u697c","avgprice":25.0,"latitude":40.784338,"longitude":111.541592,"avgscore":4.0,"comments":922,"backCateName":"\u897f\u5f0f\u5feb\u9910\/\u6c49\u5821","areaname":"\u91d1\u5ddd\u5f00\u53d1\u533a","region":"\u91d1\u5ddd\u5f00\u53d1\u533a","isMain":false,"city":"\u547c\u548c\u6d69\u7279"},{"index":12526,"id":165630760,"title":"royalstea\u7687\u8336","address":"\u4e0a\u57ce\u533a\u5e86\u6625\u8def227\u53f7\u8863\u4e4b\u5bb6\u4e00\u697c","avgprice":21.0,"latitude":30.257885,"longitude":120.160772,"avgscore":3.8,"comments":26,"backCateName":"\u5976\u8336\/\u679c\u6c41","areaname":"\u9f99\u7fd4\u6865\/\u97f3\u4e50\u55b7\u6cc9","region":"\u4e0a\u57ce\u533a","isMain":true,"city":"\u676d\u5dde"},{"index":21936,"id":6998501,"title":"\u4e1c\u5c31\u9e2d\u996d\u5e97","address":"\u7f8e\u5170\u533a\u897f\u6c99\u8def40\u53f7\u5bcc\u6e90\u5546\u4e1a\u697c\u4e00\u5c42\uff08\u5929\u957f\u5730\u4e45\u5a5a\u7eb1\u6444\u5f71\u5bf9\u9762\uff09","avgprice":35.0,"latitude":20.019838,"longitude":110.334965,"avgscore":4.6,"comments":4215,"backCateName":"\u6d77\u5357\u83dc","areaname":"\u7f8e\u5170\u533a","region":"\u7f8e\u5170\u533a","isMain":false,"city":"\u6d77\u53e3"},{"index":18261,"id":90703842,"title":"CoCo\u90fd\u53ef","address":"\u4e1c\u897f\u6e56\u533a\u4e1c\u5434\u5927\u9053\u8def888\u53f7\u4e2d\u5fc3\u5e7f\u573a","avgprice":13.0,"latitude":30.623494,"longitude":114.138383,"avgscore":5.0,"comments":287,"backCateName":"\u5976\u8336\/\u679c\u6c41","areaname":"\u5434\u5bb6\u5c71","region":"\u4e1c\u897f\u6e56\u533a","isMain":true,"city":"\u6b66\u6c49"},{"index":18037,"id":184370910,"title":"\u751c\u7269","address":"\u91d1\u6c34\u533a\u4e1c\u98ce\u8def32\u53f7\u701a\u6d77\u6d77\u5c1a\u5546\u573a1\u5c42126\u53f7","avgprice":30.0,"latitude":34.800924,"longitude":113.646374,"avgscore":4.4,"comments":14,"backCateName":"\u996e\u54c1\u5e97","areaname":"\u4e1c\u98ce\u8def","region":"\u91d1\u6c34\u533a","isMain":false,"city":"\u90d1\u5dde"},{"index":7281,"id":168768891,"title":"\u62ab\u8428\u884c\u8005\u00b7\u79c1\u4eab\u7ad9","address":"\u4e07\u67cf\u6797\u533a\u5343\u5cf0\u5357\u8def\u660a\u6210\u4e16\u5bb6\uff08140\u53f7\uff091003\u53f7\u4e1c\uff08\u897f\u5cb8\u5317\u533a\u5e95\u5546\uff09","avgprice":53.0,"latitude":37.828905,"longitude":112.518107,"avgscore":3.5,"comments":8,"backCateName":"\u62ab\u8428","areaname":"\u5343\u5cf0\u5357\u8def","region":"\u4e07\u67cf\u6797\u533a","isMain":false,"city":"\u592a\u539f"},{"index":21903,"id":5477847,"title":"sweet\u5976\u8336","address":"\u7f8e\u5170\u533a\u5f69\u7968\u4e2d\u5fc3\u65c1\u80a4\u5eb7\u76ae\u80a4\u75c5\u533b\u9662\u9694\u58c1","avgprice":5.0,"latitude":20.019677,"longitude":110.364311,"avgscore":4.2,"comments":318,"backCateName":"\u5976\u8336\/\u679c\u6c41","areaname":"\u56fd\u5174\u5927\u9053\u3001\u65e5\u6708\u5e7f\u573a\u3001\u7701\u653f\u5e9c","region":"\u7f8e\u5170\u533a","isMain":true,"city":"\u6d77\u53e3"},{"index":12593,"id":620567443,"title":"\u4e94\u4e8c\u5170","address":"\u62f1\u5885\u533a\u6c34\u6676\u57ce5\u697c","avgprice":13.0,"latitude":30.304589,"longitude":120.151804,"avgscore":4.2,"comments":46,"backCateName":"\u5976\u8336\/\u679c\u6c41","areaname":"\u6c34\u6676\u57ce\u8d2d\u7269\u4e2d\u5fc3","region":"\u62f1\u5885\u533a","isMain":true,"city":"\u676d\u5dde"},{"index":24792,"id":725465437,"title":"\u7f51\u9c7c\u7f51\u5496","address":"\u5b98\u6e21\u533a\u5e7f\u798f\u8def\u94f6\u6d77\u00b7\u5e78\u798f\u5e7f\u573a","avgprice":42.0,"latitude":24.957659,"longitude":102.747031,"avgscore":4.6,"comments":12,"backCateName":"\u7f51\u5427\u7f51\u5496","areaname":"\u6a31\u82b1\u8bed\u5e78\u798f\u5e7f\u573a","region":"\u5b98\u6e21\u533a","isMain":false,"city":"\u6606\u660e"},{"index":4875,"id":193348100,"title":"\u4e66\u4ea6\u70e7\u4ed9\u8349","address":"\u4e5d\u9f99\u5761\u533a\u77f3\u6768\u8def18\u53f7\u4ec1\u60a6\u5929\u5730\u5546\u4e1a\u5e7f\u573aBF\u5c42B","avgprice":12.0,"latitude":29.528242,"longitude":106.483299,"avgscore":5.0,"comments":71,"backCateName":"\u5976\u8336\/\u679c\u6c41","areaname":"\u77f3\u6865\u94fa","region":"\u4e5d\u9f99\u5761\u533a","isMain":true,"city":"\u91cd\u5e86"},{"index":12464,"id":160168692,"title":"1\u9ede\u9ede","address":"\u5efa\u90ba\u533a\u5e94\u5929\u5927\u8857791-8\u53f7","avgprice":13.0,"latitude":32.016083,"longitude":118.752295,"avgscore":4.5,"comments":0,"backCateName":"\u5976\u8336\/\u679c\u6c41","areaname":"\u5e94\u5929\u5927\u8857\/\u6587\u4f53\u8def","region":"\u5efa\u90ba\u533a","isMain":true,"city":"\u5357\u4eac"},{"index":29802,"id":4901544,"title":"\u70e4\u7fc5\u4e00\u7edd","address":"\u65b0\u5e02\u533a\u9ca4\u9c7c\u5c71\u5357\u8def\u897f\u516b\u5df720\u53f7\uff08\u7ea2\u65d7\u5927\u961f\u516c\u4ea4\u7ad9\u65c1\uff09","avgprice":48.0,"latitude":43.865466,"longitude":87.589387,"avgscore":4.1,"comments":1225,"backCateName":"\u70e4\u7fc5","areaname":"\u4e9a\u6b27\u56fd\u9645\u4f1a\u5c55\u4e2d\u5fc3","region":"\u65b0\u5e02\u533a","isMain":false,"city":"\u4e4c\u9c81\u6728\u9f50"},{"index":24182,"id":637527527,"title":"\u76f8\u601d\u871c\u54d2","address":"\u897f\u5c71\u533a\u6d77\u5b8f\u8def\u516c\u56ed1903\u8d1f\u4e00\u697c\u6735\u5f69\u7f8e\u98df\u57ce6c-152","avgprice":27.0,"latitude":24.985698,"longitude":102.676224,"avgscore":3.5,"comments":7,"backCateName":"\u65b0\u5f0f\u751c\u54c1","areaname":"\u516c\u56ed1903","region":"\u897f\u5c71\u533a","isMain":false,"city":"\u6606\u660e"},{"index":30013,"id":193916711,"title":"\u563f\u7cd6HEYSUGAR","address":"\u7c73\u4e1c\u533a\u65b0\u7586\u4e4c\u9c81\u6728\u9f50\u5e02\u7c73\u4e1c\u533a\u78b1\u6c9f\u897f\u8def2229\u53f7\u9999\u7f07\u82d17\u680b","avgprice":0.0,"latitude":43.959396,"longitude":87.619445,"avgscore":3.0,"comments":0,"backCateName":"\u5976\u8336\/\u679c\u6c41","areaname":"\u7c73\u4e1c\u533a","region":"\u7c73\u4e1c\u533a","isMain":true,"city":"\u4e4c\u9c81\u6728\u9f50"},{"index":26329,"id":629869386,"title":"\u9ea6\u5f53\u52b3","address":"\u957f\u5b89\u533a\u5357\u957f\u5b89\u8857\u5730\u94c12\u53f7\u7ebf\u97e6\u66f2\u5357\u7ad9B\u53e3\u60e0\u6b27\u8d2d\u7269\u5e7f\u573aN88\u53f7\u5546\u94fa","avgprice":32.0,"latitude":34.141716,"longitude":108.944814,"avgscore":3.9,"comments":0,"backCateName":"\u897f\u5f0f\u5feb\u9910\/\u6c49\u5821","areaname":"\u97e6\u66f2\u5357\u7ad9","region":"\u957f\u5b89\u533a","isMain":false,"city":"\u897f\u5b89"},{"index":24425,"id":164483491,"title":"CoCo\u90fd\u53ef","address":"\u4e94\u534e\u533a\u6606\u660e\u6b63\u5927\u7d2b\u90fd\u57ce1\u533a1\u5c42130\u53f7\u964455-1\u53f7\u5546\u94fa","avgprice":13.0,"latitude":25.050389,"longitude":102.66979,"avgscore":4.9,"comments":223,"backCateName":"\u5976\u8336\/\u679c\u6c41","areaname":"\u4e30\u5b81\u5c0f\u533a","region":"\u4e94\u534e\u533a","isMain":true,"city":"\u6606\u660e"},{"index":6589,"id":98479269,"title":"\u751c\u5566\u5566","address":"\u65b0\u534e\u533a112\uff0c118\u8def\u6c7d\u8f66\u7ec8\u70b9\u7ad9\u4e1c\u884c50\u7c73\u8def\u5317","avgprice":0.0,"latitude":38.129816,"longitude":114.497804,"avgscore":3.5,"comments":0,"backCateName":"\u5976\u8336\/\u679c\u6c41","areaname":"\u7ecf\u8d38\u5927\u5b66\u5bb6\u5c5e\u9662","region":"\u65b0\u534e\u533a","isMain":true,"city":"\u77f3\u5bb6\u5e84"},{"index":6990,"id":165028691,"title":"\u7737\u6751\u963f\u5b37","address":"\u5c0f\u5e97\u533a\u957f\u98ce\u8857\u5317\u7f8e\u65b0\u5929\u57305\u697c","avgprice":20.0,"latitude":37.81668,"longitude":112.562657,"avgscore":4.0,"comments":3,"backCateName":"\u5feb\u9910\u7b80\u9910","areaname":"\u957f\u98ce\u8857","region":"\u5c0f\u5e97\u533a","isMain":false,"city":"\u592a\u539f"},{"index":24501,"id":1534205536,"title":"\u4e09\u628a\u626b\u5e1a\u7cbe\u54c1\u5496\u5561\u9986","address":"\u4e94\u534e\u533a\u5317\u95e8\u8857143\u53f7","avgprice":0.0,"latitude":25.05462,"longitude":102.705029,"avgscore":3.5,"comments":0,"backCateName":"\u5496\u5561\u5385","areaname":"\u5706\u901a\u5c71","region":"\u4e94\u534e\u533a","isMain":false,"city":"\u6606\u660e"},{"index":11685,"id":193302810,"title":"\u5c0f\u6c14\u8336","address":"\u79e6\u6dee\u533a\u4e09\u5143\u5df72\u53f7","avgprice":14.0,"latitude":32.03511,"longitude":118.78363,"avgscore":5.0,"comments":94,"backCateName":"\u5976\u8336\/\u679c\u6c41","areaname":"\u65b0\u8857\u53e3","region":"\u79e6\u6dee\u533a","isMain":true,"city":"\u5357\u4eac"},{"index":22753,"id":164064385,"title":"1\u9ede\u9ede","address":"\u6e29\u6c5f\u533a\u67f3\u57ce\u8857\u9053\u4e07\u76db\u793e\u533a\u67f3\u6d6a\u6e7e163\u53f7\uff08\u6c5f\u5357\u9053\u70ad\u706b\u81ea\u52a9\u70e4\u8089\u5bf9\u9762\uff09","avgprice":13.0,"latitude":30.682567,"longitude":103.828721,"avgscore":3.5,"comments":0,"backCateName":"\u5976\u8336\/\u679c\u6c41","areaname":"\u67f3\u6d6a\u6e7e","region":"\u6e29\u6c5f\u533a","isMain":true,"city":"\u6210\u90fd"},{"index":19325,"id":778197229,"title":"1\u9ede\u9ede","address":"\u96e8\u82b1\u533a\u66d9\u5149\u4e2d\u8def506\u53f7","avgprice":14.0,"latitude":28.165853,"longitude":113.002569,"avgscore":3.5,"comments":0,"backCateName":"\u5976\u8336\/\u679c\u6c41","areaname":"\u5de6\u5bb6\u5858","region":"\u96e8\u82b1\u533a","isMain":true,"city":"\u957f\u6c99"},{"index":11034,"id":1642247323,"title":"\u4e54\u7ef4\u65af\u897f\u70b9","address":"\u963f\u57ce\u533a\u724c\u8def\u5927\u8857484\u53f7","avgprice":19.0,"latitude":45.54492,"longitude":126.975888,"avgscore":0.0,"comments":0,"backCateName":"\u62ab\u8428","areaname":"\u963f\u57ce\u533a\u4e2d\u5fc3\u57ce\u533a","region":"\u963f\u57ce\u533a","isMain":false,"city":"\u54c8\u5c14\u6ee8"},{"index":1448,"id":471677,"title":"CoCo\u90fd\u53ef","address":"\u6d66\u4e1c\u65b0\u533a\u660c\u91cc\u8def134\u53f7","avgprice":13.0,"latitude":31.17479,"longitude":121.49901,"avgscore":4.8,"comments":116,"backCateName":"\u5976\u8336\/\u679c\u6c41","areaname":"\u4e16\u535a\u56ed","region":"\u6d66\u4e1c\u65b0\u533a","isMain":true,"city":"\u4e0a\u6d77"},{"index":1690,"id":160061527,"title":"CoCo\u90fd\u53ef","address":"\u95f5\u884c\u533a\u6c5f\u6708\u8def1800\u53f7\u535c\u8702\u83b2\u82b1\u6d66\u6c5f\u5e971\u697cN1\u53f7\u5546\u94fa","avgprice":13.0,"latitude":31.08303,"longitude":121.506313,"avgscore":4.4,"comments":161,"backCateName":"\u5976\u8336\/\u679c\u6c41","areaname":"\u6d66\u6c5f\u9547","region":"\u95f5\u884c\u533a","isMain":true,"city":"\u4e0a\u6d77"},{"index":6719,"id":1923492476,"title":"\u6e2f\u5f0f\u5976\u8336","address":"\u957f\u5b89\u533a\u957f\u5b89\u533a\u5929\u6d77\u00b7\u535a\u96c5\u76db\u4e16","avgprice":0.0,"latitude":38.079334,"longitude":114.579963,"avgscore":0.0,"comments":0,"backCateName":"\u5976\u8336\/\u679c\u6c41","areaname":"\u957f\u5b89\u533a","phone":null,"region":"\u957f\u5b89\u533a","isMain":true,"city":"\u77f3\u5bb6\u5e84"},{"index":9421,"id":170640946,"title":"\u8d21\u8336","address":"\u5927\u4e1c\u533a\u957f\u5b89\u8def3\u53f7\u4e1c\u65b9\u6559\u80b2\u9694\u58c1","avgprice":0.0,"latitude":41.797346,"longitude":123.485914,"avgscore":3.5,"comments":0,"backCateName":"\u5976\u8336\/\u679c\u6c41","areaname":"\u5927\u4e1c\u8def\/\u4e1c\u5854","region":"\u5927\u4e1c\u533a","isMain":true,"city":"\u6c88\u9633"},{"index":15690,"id":156836745,"title":"\u5c06\u519b\u8336\u996e","address":"\u5357\u660c\u53bf\u6c5f\u897f\u5e08\u8303\u5927\u5b66\u7476\u6e56\u6821\u533a\u4e94\u98df\u5802\u4e00\u697c\u4e1c\u4fa7","avgprice":0.0,"latitude":28.682978,"longitude":116.030891,"avgscore":3.5,"comments":5,"backCateName":"\u5976\u8336\/\u679c\u6c41","areaname":"\u7476\u6e56","region":"\u5357\u660c\u53bf\u6c5f\u897f\u5e08\u8303\u5927\u5b66\u7476\u6e56\u6821\u533a","isMain":true,"city":"\u5357\u660c"},{"index":23663,"id":182432895,"title":"7\u53f7\u82b1\u56ed\u9910\u5385","address":"\u89c2\u5c71\u6e56\u533a\u5317\u5927\u8d44\u6e90\u68a6\u60f3\u57ce7\u53f7\u5730A05\u680b4\u697c","avgprice":47.0,"latitude":26.623606,"longitude":106.66763,"avgscore":4.1,"comments":319,"backCateName":"\u8d35\u5dde\u83dc","areaname":"\u8d35\u9633\u5317\u7ad9","region":"\u89c2\u5c71\u6e56\u533a","isMain":false,"city":"\u8d35\u9633"},{"index":103,"id":99248158,"title":"\u5feb\u4e50\u67e0\u6aac","address":"\u4e1c\u57ce\u533a\u738b\u5e9c\u4e95\u5927\u8857138\u53f7\u65b0\u4e1c\u5b89\u5e7f\u573a6\u5c42L611\u53f7","avgprice":20.0,"latitude":39.914392,"longitude":116.411947,"avgscore":4.9,"comments":327,"backCateName":"\u5976\u8336\/\u679c\u6c41","areaname":"\u738b\u5e9c\u4e95\/\u4e1c\u5355","region":"\u4e1c\u57ce\u533a","isMain":true,"city":"\u5317\u4eac"},{"index":7091,"id":654039811,"title":"\u5c0f\u786e\u8336","address":"\u8fce\u6cfd\u533a\u89e3\u653e\u5357\u8def7\u53f7","avgprice":0.0,"latitude":37.85652,"longitude":112.557655,"avgscore":3.5,"comments":0,"backCateName":"\u5976\u8336\/\u679c\u6c41","areaname":"\u8fce\u6cfd\u533a","phone":null,"region":"\u8fce\u6cfd\u533a","isMain":true,"city":"\u592a\u539f"},{"index":16816,"id":1877264211,"title":"\u6caa\u4e0a\u963f\u59e8","address":"\u5386\u57ce\u533a\u6e2f\u6c9f\u8857\u9053\u51e4\u6816\u7b2c\u5c0f\u533a2-108\u5546\u94fa\u5185\u5317\u4fa7","avgprice":0.0,"latitude":36.678422,"longitude":117.179177,"avgscore":3.5,"comments":0,"backCateName":"\u5976\u8336\/\u679c\u6c41","areaname":"\u5c71\u4e1c\u5efa\u7b51\u5927\u5b66","region":"\u5386\u57ce\u533a","isMain":true,"city":"\u6d4e\u5357"},{"index":25017,"id":195175310,"title":"\u85cf\u63aa\u5496\u5561\u9986","address":"\u57ce\u5173\u533a\u6c5f\u82cf\u8def40\u53f7\u5c1a\u5c45\u9152\u5e97\u4e94\u697c","avgprice":45.0,"latitude":29.647024,"longitude":91.13326,"avgscore":5.0,"comments":325,"backCateName":"\u5496\u5561\u5385","areaname":"\u5927\u662d\u5bfa\/\u516b\u5ed3\u8857","region":"\u57ce\u5173\u533a","isMain":false,"city":"\u62c9\u8428"},{"index":10021,"id":169477952,"title":"\u543e\u996e\u826f\u54c1","address":"\u5bbd\u57ce\u533a302\u56fd\u9053\u5408\u9686\u9547\u9633\u5149\u5c0f\u533a3\u680b12\u95e8","avgprice":0.0,"latitude":44.055565,"longitude":125.187949,"avgscore":0.0,"comments":0,"backCateName":"\u5976\u8336\/\u679c\u6c41","areaname":"\u5bbd\u57ce\u533a","region":"\u5bbd\u57ce\u533a","isMain":true,"city":"\u957f\u6625"},{"index":7161,"id":1015591698,"title":"\u8f6c\u89d2\u9047\u5230\u4f60","address":"\u664b\u6e90\u533a\u5c71\u897f\u946b\u53d1\u5730\u5546\u8d38\u6709\u9650\u516c\u53f8\u5357\u533a30\u53f7\uff08\u6c38\u76db\u8d85\u5e02\u65c1\uff09","avgprice":0.0,"latitude":37.718756,"longitude":112.476769,"avgscore":0.0,"comments":0,"backCateName":"\u5976\u8336\/\u679c\u6c41","areaname":"\u664b\u7960\u516c\u56ed","region":"\u664b\u6e90\u533a","isMain":true,"city":"\u592a\u539f"},{"index":18920,"id":1665309333,"title":"\u8336\u767e\u9053","address":"\u785a\u53e3\u533a\u6b66\u80dc\u8def\u51ef\u5fb7\u5e7f\u573a\u8d1f\u4e00\u697c","avgprice":16.0,"latitude":30.56873,"longitude":114.26704,"avgscore":4.0,"comments":34,"backCateName":"\u5976\u8336\/\u679c\u6c41","areaname":"\u6b66\u80dc\u8def\u51ef\u5fb7\u5e7f\u573a","region":"\u785a\u53e3\u533a","isMain":true,"city":"\u6b66\u6c49"},{"index":13830,"id":1721000449,"title":"CoCo\u90fd\u53ef","address":"\u5305\u6cb3\u533a\u4e91\u8c37\u8def\u4e0e\u5e90\u5dde\u5927\u9053\u4ea4\u6c47\u5904\u5408\u80a5\u6ee8\u6e56\u94f6\u6cf0\u57ce\u56db\u5c42L4029A\u53f7\u5546\u94fa","avgprice":13.0,"latitude":31.713759,"longitude":117.30159,"avgscore":5.0,"comments":134,"backCateName":"\u5976\u8336\/\u679c\u6c41","areaname":"\u6ee8\u6e56\u94f6\u6cf0\u57ce","region":"\u5305\u6cb3\u533a","isMain":true,"city":"\u5408\u80a5"},{"index":19231,"id":179289221,"title":"\u5948\u96ea\u7684\u8336","address":"\u96e8\u82b1\u533a\u6e58\u5e9c\u4e2d\u8def\u5fb7\u601d\u52e4\u57ce\u5e02\u5e7f\u573a\u56db\u5b63\u6c47\u8d2d\u7269\u4e2d\u5fc3\u4e00\u5c42L1-19\u53f7\u5546\u94fa","avgprice":39.0,"latitude":28.111414,"longitude":113.013057,"avgscore":3.4,"comments":21,"backCateName":"\u5976\u8336\/\u679c\u6c41","areaname":"\u5fb7\u601d\u52e4\u57ce\u5e02\u5e7f\u573a","region":"\u96e8\u82b1\u533a","isMain":true,"city":"\u957f\u6c99"},{"index":24341,"id":1583972562,"title":"\u4e00\u82b3\u53f0\u6e7e\u6c34\u679c\u8336","address":"\u5b98\u6e21\u533a\u91d1\u6e90\u5927\u9053\u4e16\u7eaa\u91d1\u6e90\u8d2d\u7269\u4e2d\u5fc3\u65f6\u5149\u91cc\u8d2d\u7269\u5e7f\u573a\u8d1f\u4e00\u5c42","avgprice":18.0,"latitude":24.977505,"longitude":102.762038,"avgscore":3.5,"comments":8,"backCateName":"\u5976\u8336\/\u679c\u6c41","areaname":"\u4e16\u7eaa\u57ce","region":"\u5b98\u6e21\u533a","isMain":true,"city":"\u6606\u660e"},{"index":24530,"id":1232719039,"title":"\u98df\u91cc\u94fa\u5b50\u5c0f\u5377\u7c89","address":"\u4e94\u534e\u533a\u666e\u5409\u529e\u4e8b\u5904\u65b0\u57ce\u543e\u60a6\u5e7f\u573a1\u5c42112\u53f7\u5546\u94fa","avgprice":0.0,"latitude":25.090195,"longitude":102.659011,"avgscore":5.0,"comments":48,"backCateName":"\u7c73\u7c89","areaname":"\u9ad8\u65b0\u5546\u5b66\u9662","region":"\u4e94\u534e\u533a","isMain":false,"city":"\u6606\u660e"},{"index":20524,"id":159276628,"title":"aisa\u827e\u8428","address":"\u9752\u79c0\u533a\u4e1c\u845b\u8def9\u53f7\u8054\u53d1\u81fb\u54c12\u53f7\u697c2\u680b112\u53f7\u94fa\u9762\uff08\u4e1c\u845b\u8def\u98de\u51e4\u83dc\u5e02\u5bf9\u9762\uff09","avgprice":11.0,"latitude":22.81641,"longitude":108.333964,"avgscore":5.0,"comments":386,"backCateName":"\u5976\u8336\/\u679c\u6c41","areaname":"\u4e1c\u845b\u53e4\u57ce","region":"\u9752\u79c0\u533a","isMain":true,"city":"\u5357\u5b81"},{"index":21137,"id":1489748083,"title":"\u89c5\u606c\u65f6\u5149","address":"\u7f8e\u5170\u533a\u548c\u5e73\u5927\u9053\u6d77\u5c9b\u6625\u592936-5\u53f7(\u548c\u5e73\u5927\u9053\u4e0e\u4e94\u4e1c\u8def\u4ea4\u6c47\u5904)","avgprice":15.0,"latitude":20.062957,"longitude":110.34768,"avgscore":5.0,"comments":65,"backCateName":"\u5976\u8336\/\u679c\u6c41","areaname":"\u6d77\u7538\u5c9b","region":"\u7f8e\u5170\u533a","isMain":true,"city":"\u6d77\u53e3"},{"index":8531,"id":185741335,"title":"\u884c\u884c\u8336\u996e","address":"\u8d5b\u7f55\u533a\u662d\u4e4c\u8fbe\u8def\u5b66\u5e9c\u82b1\u56ed\u8def\u5b66\u5e9c\u5546\u52a1\u697c\u5bf9\u9762","avgprice":0.0,"latitude":40.801168,"longitude":111.702622,"avgscore":0.0,"comments":0,"backCateName":"\u5976\u8336\/\u679c\u6c41","areaname":"\u5e08\u5927","region":"\u8d5b\u7f55\u533a","isMain":true,"city":"\u547c\u548c\u6d69\u7279"},{"index":23079,"id":193498596,"title":"\u5976\u6f2b\u6e05\u5fc3\u5976\u8336\u5e97","address":"\u4e4c\u5f53\u533a\u5927\u5761\u8defS2\u8d1f2-3\u53f7","avgprice":11.0,"latitude":26.627899,"longitude":106.747945,"avgscore":0.0,"comments":0,"backCateName":"\u5976\u8336\/\u679c\u6c41","areaname":"\u987a\u6d77","region":"\u4e4c\u5f53\u533a","isMain":true,"city":"\u8d35\u9633"},{"index":9621,"id":1929873138,"title":"\u9e7f\u89d2\u5df7","address":"\u671d\u9633\u533a\u6842\u6797\u80e1\u540c661\u53f7","avgprice":24.0,"latitude":43.8664,"longitude":125.319126,"avgscore":4.4,"comments":28,"backCateName":"\u5976\u8336\/\u679c\u6c41","areaname":"\u6842\u6797\u8def","region":"\u671d\u9633\u533a","isMain":true,"city":"\u957f\u6625"},{"index":10815,"id":71631424,"title":"\u963f\u6c34\u5927\u676f\u8336","address":"\u547c\u5170\u533a\u5229\u6c11\u5f00\u53d1\u533a\u5b66\u9662\u8def\u67cf\u6797\u56db\u5b63C1-1\u680b39\u53f7\u5546\u670d","avgprice":0.0,"latitude":45.873976,"longitude":126.529664,"avgscore":3.5,"comments":0,"backCateName":"\u5976\u8336\/\u679c\u6c41","areaname":"\u5b66\u9662\u8def","region":"\u547c\u5170\u533a","isMain":true,"city":"\u54c8\u5c14\u6ee8"},{"index":25479,"id":193323435,"title":"\u871c\u96ea\u51b0\u57ce\u00b7\u51b0\u6dc7\u6dcb\u4e0e\u8336","address":"\u4e34\u6f7c\u533a\u897f\u5927\u8857\uff08\u591c\u5e02\u5357\u53e3\u659c\u5bf9\u9762\uff09","avgprice":6.0,"latitude":34.369434,"longitude":109.211532,"avgscore":4.7,"comments":45,"backCateName":"\u5976\u8336\/\u679c\u6c41","areaname":"\u4e34\u6f7c","region":"\u4e34\u6f7c\u533a","isMain":true,"city":"\u897f\u5b89"},{"index":24190,"id":576431315,"title":"right tea\u5bf9\u5bf9\u8336","address":"\u76d8\u9f99\u533a\u91d1\u661f\u5c0f\u533a(\u82d1\u897f\u5df7)1\u53f7","avgprice":14.0,"latitude":25.068097,"longitude":102.728487,"avgscore":5.0,"comments":43,"backCateName":"\u5976\u8336\/\u679c\u6c41","areaname":"\u91d1\u661f\u5c0f\u533a","region":"\u76d8\u9f99\u533a","isMain":true,"city":"\u6606\u660e"},{"index":16984,"id":158693690,"title":"\u963f\u6c34\u5927\u676f\u8336","address":"\u5e02\u4e2d\u533a\u7ecf\u4e09\u7eac\u4e09\u8def\u4ea4\u53c9\u8def\u53e3\u6d4e\u5357\u878d\u6c47\u8001\u5546\u57e01\u680b108\u53f7","avgprice":11.0,"latitude":36.66244,"longitude":116.993163,"avgscore":5.0,"comments":93,"backCateName":"\u5976\u8336\/\u679c\u6c41","areaname":"\u5927\u89c2\u56ed","region":"\u5e02\u4e2d\u533a","isMain":true,"city":"\u6d4e\u5357"},{"index":25246,"id":740374903,"title":"\u8bfa\u5c14\u54c8\u6839","address":"\u57ce\u5173\u533a\u533a\u76f4\u5de5\u59d4\u8def3\u53f7\u95e8\u9762","avgprice":0.0,"latitude":29.659522,"longitude":91.104088,"avgscore":3.5,"comments":0,"backCateName":"\u5976\u8336\/\u679c\u6c41","areaname":"\u5929\u6d77\u591c\u5e02","region":"\u57ce\u5173\u533a","isMain":true,"city":"\u62c9\u8428"},{"index":28812,"id":1886452043,"title":"\u665a\u7ec4\u7ec7\u996e\u54c1\u5e97","address":"\u5174\u5e86\u533a\u94f6\u6cb3\u5df7","avgprice":0.0,"latitude":38.469632,"longitude":106.289089,"avgscore":0.0,"comments":0,"backCateName":"\u5976\u8336\/\u679c\u6c41","areaname":"\u6e56\u6ee8\u8857","phone":null,"region":"\u5174\u5e86\u533a","isMain":true,"city":"\u94f6\u5ddd"},{"index":10584,"id":6797198,"title":"\u7687\u79a7\u8d21\u8336","address":"\u5357\u5c97\u533a\u6c11\u76ca\u885728-4\u53f7","avgprice":12.0,"latitude":45.76477,"longitude":126.64462,"avgscore":4.1,"comments":942,"backCateName":"\u5976\u8336\/\u679c\u6c41","areaname":"\u79cb\u6797\u679c\u6208\u91cc","region":"\u5357\u5c97\u533a","isMain":true,"city":"\u54c8\u5c14\u6ee8"},{"index":6764,"id":1214287815,"title":"\u4e66\u4ea6\u70e7\u4ed9\u8349","address":"\u5c0f\u5e97\u533a\u897f\u6e29\u5e84\u4e61\u5bfa\u5e84\u6751\u5b66\u5b50\u65f6\u4ee3\u5e7f\u573a1\u5c42165\u53f7","avgprice":12.0,"latitude":37.739903,"longitude":112.66441,"avgscore":3.5,"comments":0,"backCateName":"\u5976\u8336\/\u679c\u6c41","areaname":"\u5c0f\u5e97\u533a","region":"\u5c0f\u5e97\u533a","isMain":true,"city":"\u592a\u539f"},{"index":20537,"id":193323275,"title":"\u8336\u5343\u5c81","address":"\u9752\u79c0\u533a\u767e\u82b1\u5cad\u8def18\u53f7\u534e\u51ef\u9038\u60a6\u8c6a\u5ead16\u680b17\u680b\u5730\u4e0b\u4e00\u5c42B141\u53f7\u5546\u94fa","avgprice":12.0,"latitude":22.818016,"longitude":108.424415,"avgscore":5.0,"comments":82,"backCateName":"\u5976\u8336\/\u679c\u6c41","areaname":"\u51e4\u5cad\u5317","region":"\u9752\u79c0\u533a","isMain":true,"city":"\u5357\u5b81"},{"index":12333,"id":876915462,"title":"\u9c9c\u828b\u4ed9","address":"\u6c5f\u5b81\u533a\u6c5f\u5b81\u533a\u4e1c\u5c71\u8857\u9053\u6f6d\u56ed\u897f\u8def199\u53f7\u5357\u4eac\u9f99\u6e7e\u5929\u88575F-22","avgprice":24.0,"latitude":31.938495,"longitude":118.844029,"avgscore":3.5,"comments":0,"backCateName":"\u6e2f\u53f0\u751c\u54c1","areaname":"\u4e1c\u5c71\u9547","region":"\u6c5f\u5b81\u533a","isMain":false,"city":"\u5357\u4eac"},{"index":21,"id":184352523,"title":"1\u9ede\u9ede","address":"\u671d\u9633\u533a\u5317\u82d1\u8def\u5317\u4e0a\u54c1+2\u5c42","avgprice":18.0,"latitude":40.031701,"longitude":116.417161,"avgscore":4.5,"comments":0,"backCateName":"\u5976\u8336\/\u679c\u6c41","areaname":"\u5317\u82d1\u5bb6\u56ed","region":"\u671d\u9633\u533a","isMain":true,"city":"\u5317\u4eac"},{"index":6247,"id":169300151,"title":"iFCha\u4e00\u592b\u8336","address":"\u6b63\u5b9a\u53bf\u65b0\u57ce\u94fa\u9547\u673a\u573a\u8def\u4e0e\u5546\u4e1a\u8857\u4ea4\u53e3\u7ea2\u7eff\u706f\u5317\u884c200\u7c73","avgprice":0.0,"latitude":38.266462,"longitude":114.684907,"avgscore":3.0,"comments":0,"backCateName":"\u5976\u8336\/\u679c\u6c41","areaname":"\u6b63\u5b9a\u673a\u573a","region":"\u6b63\u5b9a\u53bf\u65b0\u57ce\u94fa\u9547\u673a\u573a\u8def\u4e0e\u5546\u4e1a\u8857\u4ea4\u53e3\u7ea2\u7eff\u706f\u5317\u884c200\u7c73\u533a","isMain":true,"city":"\u77f3\u5bb6\u5e84"},{"index":10827,"id":183978490,"title":"\u96ea\u8336","address":"\u5357\u5c97\u533a\u7ea2\u65d7\u5927\u8857301\u53f7\u5bb6\u4e50\u798f\u8d85\u5e02\u4f1a\u5c55\u4e2d\u5fc3\u5e97\u4e00\u697c\uff08\u8d85\u5e02\u5165\u53e3\u53f3\u4fa7\u5373\u662f\uff09","avgprice":10.0,"latitude":45.755017,"longitude":126.697255,"avgscore":5.0,"comments":136,"backCateName":"\u5976\u8336\/\u679c\u6c41","areaname":"\u56fd\u9645\u4f1a\u5c55\u4e2d\u5fc3","region":"\u5357\u5c97\u533a","isMain":true,"city":"\u54c8\u5c14\u6ee8"},{"index":26434,"id":912058441,"title":"\u559c\u8336","address":"\u4e03\u91cc\u6cb3\u533a\u5357\u8857\u8857\u9053\u897f\u6d25\u897f\u8def16\u53f7\u5170\u5dde\u4e2d\u5fc31-L15\u53f7","avgprice":31.0,"latitude":36.06898,"longitude":103.77492,"avgscore":4.5,"comments":0,"backCateName":"\u5976\u8336\/\u679c\u6c41","areaname":"\u5170\u5dde\u897f\u7ad9","region":"\u4e03\u91cc\u6cb3\u533a","isMain":true,"city":"\u5170\u5dde"},{"index":9517,"id":193253801,"title":"\u5fa1\u8317\u8d21\u8336","address":"\u82cf\u5bb6\u5c6f\u533a\u8299\u84c9\u885757\u53f71-18","avgprice":0.0,"latitude":41.658683,"longitude":123.346,"avgscore":0.0,"comments":0,"backCateName":"\u5976\u8336\/\u679c\u6c41","areaname":"\u82cf\u5bb6\u5c6f\u533a\u653f\u5e9c","region":"\u82cf\u5bb6\u5c6f\u533a","isMain":true,"city":"\u6c88\u9633"},{"index":13246,"id":5005932,"title":"\u80af\u5fb7\u57fa","address":"\u6850\u5e90\u53bf\u6850\u541b\u8857\u9053\u91d1\u5802\u5c71\u8def128\u53f7\u5927\u6da6\u53d1\u8d85\u5e02\u4e00\u697c","avgprice":30.0,"latitude":29.79301,"longitude":119.68847,"avgscore":4.0,"comments":0,"backCateName":"\u897f\u5f0f\u5feb\u9910\/\u6c49\u5821","areaname":"\u5927\u6da6\u53d1\/\u4e2d\u5fc3\u5e7f\u573a","region":"\u6850\u5e90\u53bf\u6850\u541b\u8857\u9053\u91d1\u5802\u5c71\u8def128\u53f7\u5927\u6da6\u53d1\u8d85\u5e02\u4e00\u697c\u533a","isMain":false,"city":"\u676d\u5dde"},{"index":20225,"id":163577277,"title":"\u5949\u8336","address":"\u5174\u5b81\u533a\u4e2d\u534e\u8def\u706b\u8f66\u7ad9\u5730\u94c1\u5546\u4e1a\u8857c21\u53f7","avgprice":18.0,"latitude":22.82432,"longitude":108.31714,"avgscore":5.0,"comments":1104,"backCateName":"\u5976\u8336\/\u679c\u6c41","areaname":"\u5174\u5b81\u533a","region":"\u5174\u5b81\u533a","isMain":true,"city":"\u5357\u5b81"},{"index":24798,"id":118058111,"title":"royaltea \u7687\u8336","address":"\u76d8\u9f99\u533a\u5317\u8fb0\u5927\u9053\u5317\u8fb0\u8d22\u5bcc\u4e2d\u5fc3\u5e7f\u573a\u4e00\u53f7\u5546\u94fa","avgprice":21.0,"latitude":25.08154,"longitude":102.73403,"avgscore":5.0,"comments":274,"backCateName":"\u5976\u8336\/\u679c\u6c41","areaname":"\u5317\u8fb0\u8d22\u5bcc\u4e2d\u5fc3","region":"\u76d8\u9f99\u533a","isMain":true,"city":"\u6606\u660e"},{"index":10595,"id":193358231,"title":"\u5feb\u4e50\u67e0\u6aac","address":"\u9999\u574a\u533a\u54c8\u5e73\u8def2\u53f7\u51ef\u65cb\u8d2d\u7269\u5e7f\u573a\u8d1f\u4e00\u5c42","avgprice":15.0,"latitude":45.720465,"longitude":126.646397,"avgscore":4.9,"comments":271,"backCateName":"\u5976\u8336\/\u679c\u6c41","areaname":"\u548c\u5174\u8def\u6cbf\u7ebf","region":"\u9999\u574a\u533a","isMain":true,"city":"\u54c8\u5c14\u6ee8"},{"index":8727,"id":725137228,"title":"CoCo\u90fd\u53ef","address":"\u94c1\u897f\u533a\u5efa\u8bbe\u897f\u8def2\u53f7\u4e00\u697c\u9f99\u4e4b\u68a6\u5927\u90fd\u6c471FG-022\u5546\u94fa","avgprice":13.0,"latitude":41.803142,"longitude":123.344981,"avgscore":5.0,"comments":396,"backCateName":"\u5976\u8336\/\u679c\u6c41","areaname":"\u5174\u9686\u5927\u90fd\u6c47","region":"\u94c1\u897f\u533a","isMain":true,"city":"\u6c88\u9633"},{"index":8410,"id":156861678,"title":"\u6b22\u4e50\u67e0\u6aac","address":"\u56de\u6c11\u533a\u65b0\u534e\u897f\u8857\u7f8e\u7279\u597d\u4e09\u697c\uff08\u4e07\u8fbe\u5f71\u9662\u65c1\uff09","avgprice":0.0,"latitude":40.81693,"longitude":111.64985,"avgscore":0.0,"comments":164,"backCateName":"\u5976\u8336\/\u679c\u6c41","areaname":"\u725b\u8857","phone":null,"region":"\u56de\u6c11\u533a","isMain":true,"city":"\u547c\u548c\u6d69\u7279"},{"index":28298,"id":686238201,"title":"\u8336\u8bed\u6625\u79cb","address":"\u57ce\u897f\u533a\u57ce\u897f\u533a\u5b89\u6cf0\u534e\u5ead71-54\u53f7","avgprice":0.0,"latitude":36.64567,"longitude":101.708375,"avgscore":3.0,"comments":0,"backCateName":"\u5976\u8336\/\u679c\u6c41","areaname":"\u6d77\u6e56\u65b0\u533a","phone":null,"region":"\u57ce\u897f\u533a","isMain":true,"city":"\u897f\u5b81"},{"index":26263,"id":194363535,"title":"\u7cbe\u5178\u6cf0\u8fea\u7684\u5976\u8336\u94fa","address":"\u9ad8\u65b0\u533a\u5927\u90fd\u835f\u4e94\u53f7\u697c\u513f\u7ae5\u8857\u533a\u5c0f\u7c73\u5546\u5e97\u5411\u4e1c150\u7c73","avgprice":16.0,"latitude":34.236897,"longitude":108.894585,"avgscore":5.0,"comments":88,"backCateName":"\u5976\u8336\/\u679c\u6c41","areaname":"\u73ab\u7470\u5927\u697c","region":"\u9ad8\u65b0\u533a","isMain":true,"city":"\u897f\u5b89"},{"index":26568,"id":182072802,"title":"\u871c\u96ea\u51b0\u57ce","address":"\u897f\u56fa\u533a\u4e34\u6d2e\u8857180\u53f7","avgprice":0.0,"latitude":36.103684,"longitude":103.601655,"avgscore":4.0,"comments":0,"backCateName":"\u5976\u8336\/\u679c\u6c41","areaname":"\u897f\u56fa\u57ce","phone":null,"region":"\u897f\u56fa\u533a","isMain":true,"city":"\u5170\u5dde"},{"index":16193,"id":1579017191,"title":"\u9ed1\u6cf7\u5802\u5976\u8336","address":"\u5357\u660c\u53bf\u7ef4\u4e5f\u62c9\u5e7f\u573a","avgprice":0.0,"latitude":28.544252,"longitude":115.944225,"avgscore":0.0,"comments":0,"backCateName":"\u5976\u8336\/\u679c\u6c41","areaname":"\u6f84\u78a7\u6e56","phone":null,"region":"\u5357\u660c\u53bf\u7ef4\u4e5f\u62c9\u5e7f\u573a\u533a","isMain":true,"city":"\u5357\u660c"},{"index":3458,"id":191204385,"title":"1\u9ede\u9ede","address":"\u5b9d\u5b89\u533a\u524d\u8fdb\u4e00\u8def258\u53f7\uff08\u6c83\u5c14\u739b\u524d\u8fdb\u5e97\u65c1\uff09","avgprice":13.0,"latitude":22.578051,"longitude":113.895389,"avgscore":3.5,"comments":0,"backCateName":"\u5976\u8336\/\u679c\u6c41","areaname":"\u65b0\u5b89","region":"\u5b9d\u5b89\u533a","isMain":true,"city":"\u6df1\u5733"},{"index":29984,"id":1083298130,"title":"\u5357\u5858\u7554\u5976\u8336","address":"\u6c99\u4f9d\u5df4\u514b\u533a\u4ed3\u623f\u6c9f\u8def37\u53f7\u5e7f\u665f\u5c0f\u533aD\u680b1\u5c424\u53f7","avgprice":0.0,"latitude":43.764486,"longitude":87.590595,"avgscore":0.0,"comments":0,"backCateName":"\u5976\u8336\/\u679c\u6c41","areaname":"\u4ed3\u623f\u6c9f","region":"\u6c99\u4f9d\u5df4\u514b\u533a","isMain":true,"city":"\u4e4c\u9c81\u6728\u9f50"},{"index":9660,"id":1497334967,"title":"\u9c9c\u679c\u65f6\u95f4","address":"\u7ecf\u6d4e\u5f00\u53d1\u533a\u6e5b\u6c5f\u8def\u6469\u5929\u6d3b\u529b\u57ce4\u697c","avgprice":15.0,"latitude":43.834802,"longitude":125.379431,"avgscore":5.0,"comments":96,"backCateName":"\u5976\u8336\/\u679c\u6c41","areaname":"\u7ecf\u6d4e\u5f00\u53d1\u533a","region":"\u7ecf\u6d4e\u5f00\u53d1\u533a","isMain":true,"city":"\u957f\u6625"},{"index":21821,"id":181419044,"title":"\u989c\u77e5\u8336\u4e5f","address":"\u9f99\u534e\u533a\u56fd\u8d38\u8def\u4e2d\u57ce\u5546\u57ce108\u53f7\uff08\u7389\u6c99\u8def\u4e0e\u56fd\u8d38\u8def\u4ea4\u53c9\u53e3\uff09","avgprice":16.0,"latitude":20.025293,"longitude":110.319833,"avgscore":5.0,"comments":613,"backCateName":"\u5976\u8336\/\u679c\u6c41","areaname":"\u56fd\u8d38\u5927\u9053","region":"\u9f99\u534e\u533a","isMain":true,"city":"\u6d77\u53e3"},{"index":16874,"id":160373591,"title":"\u67e0\u6aac\u5de5\u574a","address":"\u5929\u6865\u533a\u6d4e\u5357\u4e1c\u7ad9\u51fa\u7ad9\u53e3\u5357\u884c100\u7c73\u8def\u897f","avgprice":15.0,"latitude":36.679098,"longitude":117.028521,"avgscore":3.5,"comments":0,"backCateName":"\u5976\u8336\/\u679c\u6c41","areaname":"\u5927\u660e\u6e56\u897f\u5357\u95e8","region":"\u5929\u6865\u533a","isMain":true,"city":"\u6d4e\u5357"},{"index":3031,"id":1182102977,"title":"\u8336\u5c0f\u90aa","address":"\u5b9d\u5b89\u533a\u677e\u5c97\u8857\u9053\u4e1c\u65b9\u793e\u533a\u4e1c\u65b9\u5927\u905336\u53f7\u8054\u6295\u4e1c\u65b9\u5546\u573a3\u5c42","avgprice":17.0,"latitude":22.760341,"longitude":113.858519,"avgscore":3.5,"comments":13,"backCateName":"\u5976\u8336\/\u679c\u6c41","areaname":"\u677e\u5c97","region":"\u5b9d\u5b89\u533a","isMain":true,"city":"\u6df1\u5733"},{"index":11288,"id":163530714,"title":"\u9c9c\u679c\u76d2\u5b50","address":"\u9053\u91cc\u533a\u7fa4\u529b\u5927\u9053\u4e0e\u5174\u6c5f\u8def\u4ea4\u53e3\u4e16\u7eaa\u534e\u8054\u8d1f\u4e00\u5c42","avgprice":0.0,"latitude":45.738,"longitude":126.553801,"avgscore":3.5,"comments":0,"backCateName":"\u5976\u8336\/\u679c\u6c41","areaname":"\u7fa4\u529b\u5730\u533a","phone":null,"region":"\u9053\u91cc\u533a","isMain":true,"city":"\u54c8\u5c14\u6ee8"},{"index":21214,"id":115798467,"title":"\u862d\u82b3\u5712","address":"\u79c0\u82f1\u533a\u4e07\u8fbe\u5e7f\u573a\u4e09\u697c1\u53f7","avgprice":19.0,"latitude":19.980069,"longitude":110.278472,"avgscore":4.6,"comments":718,"backCateName":"\u5976\u8336\/\u679c\u6c41","areaname":"\u4e07\u8fbe\u5e7f\u573a","region":"\u79c0\u82f1\u533a","isMain":true,"city":"\u6d77\u53e3"},{"index":5086,"id":623179088,"title":"\u53e4\u8317","address":"\u94dc\u6881\u533a\u4e1c\u57ce\u8857\u9053\u529e\u4e8b\u5904\u8d22\u5bcc\u5357\u8def1\u53f73\u53f7\u697c1-7\uff08\u8d22\u5bcc\u5e7f\u573a\uff09","avgprice":15.0,"latitude":29.838836,"longitude":106.077943,"avgscore":4.0,"comments":3,"backCateName":"\u5976\u8336\/\u679c\u6c41","areaname":"\u65b0\u57ce\u533a","region":"\u94dc\u6881\u533a","isMain":true,"city":"\u91cd\u5e86"},{"index":13187,"id":180523349,"title":"\u9e7f\u89d2\u5df7","address":"\u897f\u6e56\u533a\u7d2b\u8346\u82b1\u5317\u8def85\u53f7","avgprice":23.0,"latitude":30.310676,"longitude":120.091077,"avgscore":4.2,"comments":34,"backCateName":"\u5976\u8336\/\u679c\u6c41","areaname":"\u9ad8\u65b0\u6587\u6559\u533a","region":"\u897f\u6e56\u533a","isMain":true,"city":"\u676d\u5dde"},{"index":15045,"id":188800642,"title":"KOI Th\u00e9","address":"\u664b\u5b89\u533a\u7af9\u5c7f\u8def6\u53f7\u4e1c\u4e8c\u73af\u6cf0\u79be\u6c34\u79c0\u5e7f\u573a\u4e8c\u697c\u7f16\u53f7L222\u5546\u94fa\uff08\u8bb8\u7559\u5c71\u5bf9\u9762\uff09","avgprice":25.0,"latitude":26.091061,"longitude":119.33527,"avgscore":4.2,"comments":21,"backCateName":"\u5976\u8336\/\u679c\u6c41","areaname":"\u4e1c\u4e8c\u73af\u6cf0\u79be\u5e7f\u573a","region":"\u664b\u5b89\u533a","isMain":true,"city":"\u798f\u5dde"},{"index":15558,"id":157842257,"title":"\u9ed1\u6cf7\u5802","address":"\u9752\u5c71\u6e56\u533a\u4e0a\u6d77\u8def\u6052\u8302\u68a6\u65f6\u4ee3\u4e00\u697c\u592a\u5e73\u6d0b\u5496\u5561\u9694\u58c1","avgprice":15.0,"latitude":28.67335,"longitude":115.93953,"avgscore":4.0,"comments":0,"backCateName":"\u5976\u8336\/\u679c\u6c41","areaname":"\u4e0a\u6d77\u8def","region":"\u9752\u5c71\u6e56\u533a","isMain":true,"city":"\u5357\u660c"},{"index":20787,"id":42615879,"title":"\u9ea6\u5f53\u52b3","address":"\u5174\u5b81\u533a\u671d\u9633\u8def78\u53f7\u5357\u65b9\u5927\u53a6\u4e00\u697c","avgprice":23.0,"latitude":22.822701,"longitude":108.318111,"avgscore":4.2,"comments":441,"backCateName":"\u897f\u5f0f\u5feb\u9910\/\u6c49\u5821","areaname":"\u5174\u5b81\u533a","region":"\u5174\u5b81\u533a","isMain":false,"city":"\u5357\u5b81"},{"index":1143,"id":1578380,"title":"\u5feb\u4e50\u67e0\u6aachappylemon","address":"\u9ec4\u6d66\u533a\u5357\u4eac\u4e1c\u8def300\u53f7\u540d\u4eba\u5546\u4e1a\u5927\u53a6\u5546\u573a\u90e8\u5206B110\u5ba4","avgprice":20.0,"latitude":31.238049,"longitude":121.484165,"avgscore":4.9,"comments":154,"backCateName":"\u5976\u8336\/\u679c\u6c41","areaname":"\u4eba\u6c11\u5e7f\u573a\/\u5357\u4eac\u8def","region":"\u9ec4\u6d66\u533a","isMain":true,"city":"\u4e0a\u6d77"},{"index":1216,"id":5307267,"title":"CoCo\u90fd\u53ef","address":"\u6d66\u4e1c\u65b0\u533a\u6d66\u4e1c\u533a\u65bd\u9547\u8def256\u5f041\u53f71-3\u5c42\u6c83\u5c14\u739b","avgprice":13.0,"latitude":31.145583,"longitude":121.755022,"avgscore":5.0,"comments":304,"backCateName":"\u5976\u8336\/\u679c\u6c41","areaname":"\u6d66\u4e1c\u673a\u573a\/\u673a\u573a\u9547","region":"\u6d66\u4e1c\u65b0\u533a","isMain":true,"city":"\u4e0a\u6d77"},{"index":23275,"id":988105736,"title":"Supreme tea","address":"\u4e91\u5ca9\u533a\u9e7f\u51b2\u5173\u8def\u4e2d\u5927\u56fd\u9645\u5e7f\u573a\u4e09\u697c","avgprice":18.0,"latitude":26.604457,"longitude":106.720586,"avgscore":4.7,"comments":60,"backCateName":"\u5976\u8336\/\u679c\u6c41","areaname":"\u4e2d\u5927\u56fd\u9645\u8d2d\u7269\u4e2d\u5fc3","region":"\u4e91\u5ca9\u533a","isMain":true,"city":"\u8d35\u9633"},{"index":3714,"id":90204359,"title":"moge tee\u613f\u8336","address":"\u5b9d\u5b89\u533a\u897f\u4e61\u8857\u9053\u9886\u822a\u57ce\u5927\u9053\u5317\u4fa7\u9886\u7fd4\u534e\u5e9c\u4e8c\u671f10\u53f7","avgprice":20.0,"latitude":22.611043,"longitude":113.856431,"avgscore":3.5,"comments":93,"backCateName":"\u5976\u8336\/\u679c\u6c41","areaname":"\u897f\u4e61","region":"\u5b9d\u5b89\u533a","isMain":true,"city":"\u6df1\u5733"},{"index":14939,"id":166887947,"title":"\u53e4\u8317","address":"\u798f\u6e05\u5e02\u6d77\u53e3\u9547\u4e09\u6c5f\u82b1\u56ed9\u53f7\uff08201\u7701\u9053\u534e\u7fd4\u8d85\u5e02\u5bf9\u9762\uff09","avgprice":15.0,"latitude":25.695101,"longitude":119.462811,"avgscore":3.5,"comments":1,"backCateName":"\u5976\u8336\/\u679c\u6c41","areaname":"\u798f\u6e05","region":"\u798f\u6e05\u5e02\u6d77\u53e3\u9547\u4e09\u6c5f\u82b1\u56ed9\u53f7\uff08201\u7701\u9053\u534e\u7fd4\u8d85\u5e02\u5bf9\u9762\uff09\u533a","isMain":true,"city":"\u798f\u5dde"},{"index":20208,"id":1510650933,"title":"\u5927\u8fd0\u8336\u00b7\u79d8\u5236\u9ed1\u7cd6\u70e4\u5976","address":"\u9752\u79c0\u533a\u4e1c\u845b\u8def118\u53f7\u9752\u79c0\u4e07\u8fbe\u5e7f\u573a\u4e1c9\u680b\u4e07\u8fbe\u94f6\u5ea71\u697c\u5927\u5802","avgprice":8.0,"latitude":22.829278,"longitude":108.375462,"avgscore":4.2,"comments":64,"backCateName":"\u5976\u8336\/\u679c\u6c41","areaname":"\u9752\u79c0\u533a","region":"\u9752\u79c0\u533a","isMain":true,"city":"\u5357\u5b81"},{"index":22608,"id":194742507,"title":"\u8336\u767e\u9053","address":"\u65b0\u90fd\u533a\u65b0\u90fd\u533a\u4e09\u6cb3\u573a\u60e0\u6c11\u4e8c\u8def175\u53f7","avgprice":16.0,"latitude":30.780862,"longitude":104.141902,"avgscore":3.5,"comments":1,"backCateName":"\u5976\u8336\/\u679c\u6c41","areaname":"\u4e09\u6cb3\u573a","region":"\u65b0\u90fd\u533a","isMain":true,"city":"\u6210\u90fd"},{"index":29478,"id":190566653,"title":"R&B TEA","address":"\u6c99\u4f9d\u5df4\u514b\u533a\u53cb\u597d\u8def689\u53f7\u7f8e\u7f8e\u767e\u8d27\u8d70\u5230\u5934\uff08\u7f8e\u7f8e\uff0c\u7f8e\u98df\u88573\u697c\uff09","avgprice":21.0,"latitude":43.820102,"longitude":87.587543,"avgscore":4.8,"comments":446,"backCateName":"\u5976\u8336\/\u679c\u6c41","areaname":"\u53cb\u597d","region":"\u6c99\u4f9d\u5df4\u514b\u533a","isMain":true,"city":"\u4e4c\u9c81\u6728\u9f50"},{"index":27148,"id":194311709,"title":"\u9c9c\u679c\u6709\u7ea6","address":"\u6c38\u767b\u53bf\u80dc\u5229\u88571691\u53f7","avgprice":0.0,"latitude":36.731997,"longitude":103.26298,"avgscore":0.0,"comments":0,"backCateName":"\u5976\u8336\/\u679c\u6c41","areaname":"\u6c38\u767b\u53bf\u4e2d\u5fc3\u57ce\u533a","phone":null,"region":"\u6c38\u767b\u53bf\u80dc\u5229\u88571691\u53f7\u533a","isMain":true,"city":"\u5170\u5dde"},{"index":2124,"id":193535309,"title":"Taning\u631e\u67e0\u00b7\u624b\u631e\u67e0\u6aac\u8336","address":"\u5929\u6cb3\u533a\u534e\u89c2\u8def1934\u53f7\u4e07\u79d1\u5e7f\u573aB116-B117\u94fa","avgprice":14.0,"latitude":23.166908,"longitude":113.404473,"avgscore":5.0,"comments":154,"backCateName":"\u5976\u8336\/\u679c\u6c41","areaname":"\u5c0f\u65b0\u5858","region":"\u5929\u6cb3\u533a","isMain":true,"city":"\u5e7f\u5dde"},{"index":15818,"id":1133499101,"title":"\u4e00\u9f99\u70e7\u4ed9\u8349","address":"\u5357\u660c\u53bf\u6f84\u6e56\u4e1c\u8def1111\u53f7\u73ba\u60a6\u57ce\u4e09\u5c423022\u53f7\u5546\u94fa","avgprice":11.0,"latitude":28.552757,"longitude":115.938384,"avgscore":4.0,"comments":14,"backCateName":"\u5976\u8336\/\u679c\u6c41","areaname":"\u6f84\u78a7\u6e56","region":"\u5357\u660c\u53bf\u6f84\u6e56\u4e1c\u8def1111\u53f7\u73ba\u60a6\u57ce\u4e09\u5c423022\u53f7\u5546\u94fa\u533a","isMain":true,"city":"\u5357\u660c"},{"index":14209,"id":90502206,"title":"\u5316\u5f97\u4e86\u7b3c\u867e\u9986","address":"\u5e90\u9633\u533a\u5e90\u6c5f\u8def106\u53f7","avgprice":124.0,"latitude":31.856971,"longitude":117.279012,"avgscore":4.7,"comments":137,"backCateName":"\u5c0f\u9f99\u867e","areaname":"\u8001\u62a5\u9986","region":"\u5e90\u9633\u533a","isMain":false,"city":"\u5408\u80a5"},{"index":8614,"id":193177003,"title":"\u547c\u548c\u6d69\u7279\u5e02\u56de\u6c11\u533a\u5a1c\u4ec1\u5976\u8336\u9986","address":"\u56de\u6c11\u533a\u5317\u4e8c\u73af\u5feb\u901f\u8def","avgprice":0.0,"latitude":40.837387,"longitude":111.590874,"avgscore":0.0,"comments":0,"backCateName":"\u5185\u8499\u83dc","areaname":"\u56de\u6c11\u533a","phone":null,"region":"\u56de\u6c11\u533a","isMain":false,"city":"\u547c\u548c\u6d69\u7279"},{"index":14592,"id":110331415,"title":"\u76ca\u79be\u5802","address":"\u53f0\u6c5f\u533a\u897f\u4e8c\u73af\u4e2d\u8def691\u53f7\u4e07\u8c61\u4e5d\u5b9c\u57ce4\u697c324\u94fa","avgprice":9.0,"latitude":26.064399,"longitude":119.290759,"avgscore":4.0,"comments":14,"backCateName":"\u5976\u8336\/\u679c\u6c41","areaname":"\u4e07\u8c61\u57ce","region":"\u53f0\u6c5f\u533a","isMain":true,"city":"\u798f\u5dde"},{"index":28660,"id":1703059547,"title":"\u54c1\u8bfb\u65f6\u5149\u00b7\u65b0\u534e\u4e66\u5e97","address":"\u91d1\u51e4\u533a\u5efa\u53d1\u5927\u9605\u57ce5\u697c\u5c0f\u9605\u7ea6\u8857\u533a\u4e1c\u5357\u89d2","avgprice":30.0,"latitude":38.513385,"longitude":106.255533,"avgscore":4.0,"comments":4,"backCateName":"\u5976\u8336\/\u679c\u6c41","areaname":"\u5927\u9605\u57ce","region":"\u91d1\u51e4\u533a","isMain":true,"city":"\u94f6\u5ddd"},{"index":11975,"id":1403541983,"title":"CoCo\u90fd\u53ef","address":"\u6c5f\u5b81\u533a\u53cc\u9f99\u5927\u9053\u6c5f\u5b81\u91d1\u9e70\u8d2d\u7269\u4e2d\u5fc3\u5185\u7684B2\u5c42AB2-00480\u53f7\u5546\u94fa","avgprice":13.0,"latitude":31.932208,"longitude":118.82098,"avgscore":4.3,"comments":71,"backCateName":"\u5976\u8336\/\u679c\u6c41","areaname":"\u6c5f\u5b81\u91d1\u9e70\/1912","region":"\u6c5f\u5b81\u533a","isMain":true,"city":"\u5357\u4eac"},{"index":19016,"id":164047519,"title":"1\u9ede\u9ede","address":"\u6c49\u9633\u533a\u9f99\u9633\u5927\u9053\u72796\u53f7\u6b66\u6c49\u6469\u5c14\u57ceB1F\u5c42B1-070\u53f7\u5546\u94fa","avgprice":14.0,"latitude":30.558776,"longitude":114.20826,"avgscore":4.0,"comments":0,"backCateName":"\u5976\u8336\/\u679c\u6c41","areaname":"\u738b\u5bb6\u6e7e","region":"\u6c49\u9633\u533a","isMain":true,"city":"\u6b66\u6c49"},{"index":25122,"id":99240271,"title":"\u84dd\u8272\u76f8\u7ea6","address":"\u57ce\u5173\u533a\u6797\u805a\u5317\u8def\uff08\u4e50\u5c71\u5927\u4f17\u4e32\u4e32\u65c1\uff09","avgprice":0.0,"latitude":29.64764,"longitude":91.144765,"avgscore":0.0,"comments":0,"backCateName":"\u5976\u8336\/\u679c\u6c41","areaname":"\u8001\u897f\u85cf\u5927\u5b66","phone":null,"region":"\u57ce\u5173\u533a","isMain":true,"city":"\u62c9\u8428"},{"index":23838,"id":194683193,"title":"\u4e66\u4ea6\u70e7\u4ed9\u8349","address":"\u6e05\u9547\u5e02\u767e\u82b1\u8def\u4e0e\u4e91\u5cad\u4e1c\u8def\u4ea4\u53c9\u53e3\u4e1c200\u7c73","avgprice":12.0,"latitude":26.561552,"longitude":106.470898,"avgscore":3.3,"comments":15,"backCateName":"\u5976\u8336\/\u679c\u6c41","areaname":"\u541b\u60a6\u56fd\u9645","region":"\u6e05\u9547\u5e02\u767e\u82b1\u8def\u4e0e\u4e91\u5cad\u4e1c\u8def\u4ea4\u53c9\u53e3\u4e1c200\u7c73\u533a","isMain":true,"city":"\u8d35\u9633"},{"index":20046,"id":60786361,"title":"\u897f\u57df\u963f\u91cc\u9a6c","address":"\u96e8\u82b1\u533a\u6842\u82b1\u8def\u51e0\u7c73\u7a7a\u95f4\u4e00\u697c\u95e8\u9762374\u53f7","avgprice":63.0,"latitude":28.169765,"longitude":113.008948,"avgscore":5.0,"comments":1320,"backCateName":"\u65b0\u7586\u83dc","areaname":"\u6842\u82b1\u8def\/\u8f66\u7ad9\u5357\u8def","region":"\u96e8\u82b1\u533a","isMain":false,"city":"\u957f\u6c99"},{"index":27583,"id":1205650,"title":"\u5fb7\u514b\u58eb","address":"\u57ce\u5317\u533a\u5c0f\u6865\u5927\u88578\u53f7","avgprice":25.0,"latitude":36.64545,"longitude":101.75813,"avgscore":4.1,"comments":8705,"backCateName":"\u897f\u5f0f\u5feb\u9910\/\u6c49\u5821","areaname":"\u5c0f\u6865","region":"\u57ce\u5317\u533a","isMain":false,"city":"\u897f\u5b81"},{"index":28701,"id":193825966,"title":"\u5361\u6734\u996e\u54c1   CUP STORY","address":"\u897f\u590f\u533a\u4e30\u76c8\u5df7\u6587\u8403\u5317\u885759\u53f7","avgprice":0.0,"latitude":38.489568,"longitude":106.13807,"avgscore":3.0,"comments":0,"backCateName":"\u5976\u8336\/\u679c\u6c41","areaname":"\u5b81\u590f\u5927\u5b66","phone":null,"region":"\u897f\u590f\u533a","isMain":true,"city":"\u94f6\u5ddd"},{"index":21719,"id":4018896,"title":"\u6cd5\u5170\u5ea6\u897f\u9910\u5385\u679c\u6728\u725b\u6252","address":"\u9f99\u534e\u533a\u4e0a\u90a6\u767e\u6c47\u57ce2\u53f7\u697c3\u697c","avgprice":91.0,"latitude":20.021476,"longitude":110.322592,"avgscore":5.0,"comments":8224,"backCateName":"\u725b\u6392","areaname":"\u4e0a\u90a6\u767e\u6c47\u57ce","region":"\u9f99\u534e\u533a","isMain":false,"city":"\u6d77\u53e3"},{"index":29838,"id":164849265,"title":"\u5434\u4f73\u62cc\u7c73\u7c89","address":"\u6c34\u78e8\u6c9f\u533a\u9f99\u76db\u8857\u4e07\u79d1\u4e2d\u592e\u516c\u56ed2\u53f7\u697c11\u53f7\u5546\u94fa","avgprice":0.0,"latitude":43.86255,"longitude":87.632618,"avgscore":4.3,"comments":271,"backCateName":"\u7c73\u7c89","areaname":"\u4e03\u9053\u6e7e","region":"\u6c34\u78e8\u6c9f\u533a","isMain":false,"city":"\u4e4c\u9c81\u6728\u9f50"},{"index":22064,"id":180604078,"title":"\u989c\u77e5\u8336\u4e5f","address":"\u9f99\u534e\u533a\u91d1\u9f99\u8def8\u53f7\u5609\u534e\u57ce\u5e02\u82b1\u56ed\u5546\u4e1a\u88d9\u697cB25\u3001B26\u53f7","avgprice":16.0,"latitude":20.022279,"longitude":110.321659,"avgscore":5.0,"comments":613,"backCateName":"\u5976\u8336\/\u679c\u6c41","areaname":"\u9f99\u534e\u533a","region":"\u9f99\u534e\u533a","isMain":true,"city":"\u6d77\u53e3"},{"index":10404,"id":78572052,"title":"\u9c9c\u679c\u65f6\u5149","address":"\u671d\u9633\u533a\u7ea2\u65d7\u8857\u4e0e\u548c\u5149\u80e1\u540c\u4ea4\u4f1a\u5904\u4e1c\u884c10\u7c73","avgprice":0.0,"latitude":43.871487,"longitude":125.301042,"avgscore":3.7,"comments":47,"backCateName":"\u5976\u8336\/\u679c\u6c41","areaname":"\u7ea2\u65d7\u8857","phone":null,"region":"\u671d\u9633\u533a","isMain":true,"city":"\u957f\u6625"},{"index":17062,"id":180551819,"title":"\u5495\u565c\u5495\u565c","address":"\u5e02\u4e2d\u533a\u4e8c\u73af\u5357\u8def2688\u53f7\u9886\u79c0\u57ce\u8d35\u548c\u8d2d\u7269\u4e2d\u5fc3GDB1-24\u94fa\u4f4d","avgprice":21.0,"latitude":36.593901,"longitude":117.00313,"avgscore":4.0,"comments":19,"backCateName":"\u5976\u8336\/\u679c\u6c41","areaname":"\u9c81\u80fd\u9886\u79c0\u57ce\u8d35\u548c","region":"\u5e02\u4e2d\u533a","isMain":true,"city":"\u6d4e\u5357"},{"index":3626,"id":171093362,"title":"\u5927\u5361\u53f8(DAKASI)","address":"\u9f99\u534e\u533a\u9f99\u534e\u65b0\u533a\u767d\u77f3\u9f99\u5730\u94c1\u7ad9c\u51fa\u53e3\u7396\u9f99\u835fL2\u5c42N125\u53f7","avgprice":17.0,"latitude":22.600156,"longitude":114.041537,"avgscore":4.5,"comments":148,"backCateName":"\u5976\u8336\/\u679c\u6c41","areaname":"\u6c11\u6cbb","region":"\u9f99\u534e\u533a","isMain":true,"city":"\u6df1\u5733"},{"index":14831,"id":179124385,"title":"\u53e4\u8317","address":"\u95fd\u4faf\u53bf\u4e0a\u8857\u9547\u9752\u5dde\u6751\u4e0a\u6d3246\u53f7","avgprice":15.0,"latitude":26.06347,"longitude":119.17619,"avgscore":3.0,"comments":0,"backCateName":"\u5976\u8336\/\u679c\u6c41","areaname":"\u798f\u5dde\u5927\u5b66\u57ce","region":"\u95fd\u4faf\u53bf\u4e0a\u8857\u9547\u9752\u5dde\u6751\u4e0a\u6d3246\u53f7\u533a","isMain":true,"city":"\u798f\u5dde"},{"index":6658,"id":94733419,"title":"\u9047\u89c1","address":"\u957f\u5b89\u533a\u6b63\u4e1c\u8def81\u53f7\uff08\u52d2\u6cf0\u5317\u95e8\u505c\u8f66\u573a\u5bf9\u9762\u8def\u5317\uff09","avgprice":31.0,"latitude":38.046641,"longitude":114.506985,"avgscore":3.9,"comments":8,"backCateName":"\u5976\u8336\/\u679c\u6c41","areaname":"\u52d2\u6cf0\u4e2d\u5fc3","region":"\u957f\u5b89\u533a","isMain":true,"city":"\u77f3\u5bb6\u5e84"},{"index":28201,"id":191793232,"title":"\u6728\u5934\u4ebaMAKA\u996e\u54c1","address":"\u57ce\u4e1c\u533a\u5357\u5c0f\u8857\u590f\u90fd\u5927\u8857221\u53f7","avgprice":0.0,"latitude":36.611622,"longitude":101.788948,"avgscore":0.0,"comments":0,"backCateName":"\u5976\u8336\/\u679c\u6c41","areaname":"\u56fd\u9645\u6751","phone":null,"region":"\u57ce\u4e1c\u533a","isMain":true,"city":"\u897f\u5b81"},{"index":14300,"id":193017185,"title":"\u751c\u5566\u5566","address":"\u8700\u5c71\u533a\u5b98\u4ead\u8def\u8700\u5c71\u65b0\u675124\u53f7\u697c101\u53f7","avgprice":7.0,"latitude":31.857546,"longitude":117.255972,"avgscore":3.5,"comments":1,"backCateName":"\u5976\u8336\/\u679c\u6c41","areaname":"\u4e09\u91cc\u5eb5","region":"\u8700\u5c71\u533a","isMain":true,"city":"\u5408\u80a5"},{"index":21559,"id":1139501709,"title":"\u6c49\u5821\u5927\u5e08","address":"\u79c0\u82f1\u533a\u957f\u6d41\u9547\u957f\u751f\u8def128\u53f7","avgprice":11.0,"latitude":20.01198,"longitude":110.202125,"avgscore":4.4,"comments":56,"backCateName":"\u897f\u5f0f\u5feb\u9910\/\u6c49\u5821","areaname":"\u897f\u6d77\u5cb8","region":"\u79c0\u82f1\u533a","isMain":false,"city":"\u6d77\u53e3"},{"index":22444,"id":1167531129,"title":"\u8336\u5343\u5c81","address":"\u90fd\u6c5f\u5830\u5e02\u592a\u5e73\u885757\u53f7","avgprice":0.0,"latitude":30.992876,"longitude":103.624157,"avgscore":3.5,"comments":1,"backCateName":"\u5976\u8336\/\u679c\u6c41","areaname":"\u90fd\u6c5f\u5830","region":"\u90fd\u6c5f\u5830\u5e02\u592a\u5e73\u885757\u53f7\u533a","isMain":true,"city":"\u6210\u90fd"},{"index":21333,"id":164597329,"title":"\u76ca\u79be\u5802","address":"\u743c\u5c71\u533a\u9ad8\u767b\u4e1c\u8857209-2\u53f7","avgprice":9.0,"latitude":20.003991,"longitude":110.371614,"avgscore":4.0,"comments":95,"backCateName":"\u5976\u8336\/\u679c\u6c41","areaname":"\u9ad8\u94c1\u4e1c\u7ad9\u3001\u9f99\u6606\u5357","region":"\u743c\u5c71\u533a","isMain":true,"city":"\u6d77\u53e3"},{"index":5656,"id":85229784,"title":"\u6c49\u5821\u738b","address":"\u6e1d\u5317\u533a\u56de\u5174\u8857\u9053\u53cc\u6e56\u8def1\u53f7\u6c34\u6728\u5929\u5730\u90fd\u4f1a\u5e7f\u573a1\u697c1\u30012\u53f7\u548c2\u697c1\u53f7\u5546\u94fa","avgprice":33.0,"latitude":29.69622,"longitude":106.61735,"avgscore":4.0,"comments":8,"backCateName":"\u897f\u5f0f\u5feb\u9910\/\u6c49\u5821","areaname":"\u4e00\u7897\u6c34","region":"\u6e1d\u5317\u533a","isMain":false,"city":"\u91cd\u5e86"},{"index":10836,"id":955531636,"title":"\u9ed1\u7cd6\u5f6a","address":"\u5357\u5c97\u533a\u6e05\u534e\u5927\u8857235\u53f7\u8d1f\u4e00\u5c42B1040","avgprice":15.0,"latitude":45.716909,"longitude":126.59842,"avgscore":4.0,"comments":3,"backCateName":"\u5976\u8336\/\u679c\u6c41","areaname":"\u51ef\u5fb7\u5e7f\u573a","region":"\u5357\u5c97\u533a","isMain":true,"city":"\u54c8\u5c14\u6ee8"},{"index":26998,"id":1461516657,"title":"\u62fe\u58f9\u5976\u8336\u5427","address":"\u5b89\u5b81\u533a\u5b89\u5b81\u533a\u745e\u5357\u00b7\u7d2b\u90e1B\u533a7\u53f7\u697c103","avgprice":0.0,"latitude":36.10049,"longitude":103.741224,"avgscore":0.0,"comments":0,"backCateName":"\u5976\u8336\/\u679c\u6c41","areaname":"\u57f9\u9ece\u5e7f\u573a","phone":null,"region":"\u5b89\u5b81\u533a","isMain":true,"city":"\u5170\u5dde"},{"index":24306,"id":70471934,"title":"CoCo\u90fd\u53ef","address":"\u4e94\u534e\u533a\u4eba\u6c11\u4e2d\u8def17\u53f7","avgprice":13.0,"latitude":25.041076,"longitude":102.713635,"avgscore":5.0,"comments":109,"backCateName":"\u5976\u8336\/\u679c\u6c41","areaname":"\u5357\u5c4f\u6b65\u884c\u8857","phone":null,"region":"\u4e94\u534e\u533a","isMain":true,"city":"\u6606\u660e"},{"index":3435,"id":159376098,"title":"50\u5c9a","address":"\u9f99\u5c97\u533a\u9f99\u5c97\u5927\u9053\u6b22\u57ce\u5e7f\u573aA\u5ea7003\u53f7","avgprice":18.0,"latitude":22.737572,"longitude":114.281535,"avgscore":3.5,"comments":63,"backCateName":"\u5976\u8336\/\u679c\u6c41","areaname":"\u53cc\u9f99","region":"\u9f99\u5c97\u533a","isMain":true,"city":"\u6df1\u5733"},{"index":19845,"id":868006532,"title":"\u4e03\u676f\u8336","address":"\u6d4f\u9633\u5e02\u6d4f\u9633\u5e02\u9e3f\u5b87\u57ce\u6b65\u884c\u8857\u5317\u4fa7A7-A8\u680b201\u5ba4","avgprice":10.0,"latitude":28.137543,"longitude":113.629829,"avgscore":4.4,"comments":38,"backCateName":"\u5976\u8336\/\u679c\u6c41","areaname":"\u6dee\u5ddd\u8857\u9053","region":"\u6d4f\u9633\u5e02\u6d4f\u9633\u5e02\u9e3f\u5b87\u57ce\u6b65\u884c\u8857\u5317\u4fa7A7-A8\u680b201\u5ba4\u533a","isMain":true,"city":"\u957f\u6c99"},{"index":13956,"id":195582801,"title":"1\u9ede\u9ede","address":"\u5e90\u6c5f\u53bf\u5e90\u57ce\u9547\u6f5c\u5ddd\u4e2d\u8def96\u53f7\u5e90\u6c5f\u4e2d\u5fc3\u57ce40\u680b\u4e00\u5c42114\u53f7","avgprice":14.0,"latitude":31.243944,"longitude":117.290496,"avgscore":4.0,"comments":0,"backCateName":"\u5976\u8336\/\u679c\u6c41","areaname":"\u5e90\u6c5f\u53bf","region":"\u5e90\u6c5f\u53bf\u5e90\u57ce\u9547\u6f5c\u5ddd\u4e2d\u8def96\u53f7\u5e90\u6c5f\u4e2d\u5fc3\u57ce40\u680b\u4e00\u5c42114\u53f7\u533a","isMain":true,"city":"\u5408\u80a5"},{"index":2587,"id":194860550,"title":"\u613f\u8336","address":"\u5929\u6cb3\u533a\u5929\u6cb3\u8def228\u53f7\u8d1f\u4e00\u5c42TASTE\u5165\u53e3\u5904","avgprice":18.0,"latitude":23.131959,"longitude":113.326476,"avgscore":4.3,"comments":17,"backCateName":"\u5976\u8336\/\u679c\u6c41","areaname":"\u6b63\u4f73\u5e7f\u573a","region":"\u5929\u6cb3\u533a","isMain":true,"city":"\u5e7f\u5dde"},{"index":15498,"id":96954706,"title":"\u5feb\u4e50\u756a\u85af","address":"\u9752\u4e91\u8c31\u533a\u4e09\u5e97\u897f\u8def488\u53f7\u5730\u4e0a1\u5c420612F1F0064\u53f7\u94fa\u4f4d","avgprice":0.0,"latitude":28.630837,"longitude":115.905529,"avgscore":4.0,"comments":0,"backCateName":"\u897f\u5f0f\u751c\u54c1","areaname":"\u8c61\u6e56","region":"\u9752\u4e91\u8c31\u533a","isMain":false,"city":"\u5357\u660c"},{"index":28154,"id":1185858804,"title":"\u8fb0\u8336","address":"\u57ce\u4e1c\u533a\u65b0\u5343\u56fd\u9645\u5e7f\u573a\u897f","avgprice":0.0,"latitude":36.60759,"longitude":101.79668,"avgscore":0.0,"comments":0,"backCateName":"\u5976\u8336\/\u679c\u6c41","areaname":"\u65b0\u5343\u56fd\u9645","phone":null,"region":"\u57ce\u4e1c\u533a","isMain":true,"city":"\u897f\u5b81"},{"index":8544,"id":157681497,"title":"\u9c9c\u679c\u65f6\u5149","address":"\u548c\u6797\u683c\u5c14\u53bf\u76db\u4e50\u7ecf\u6d4e\u56ed\u533a\u5e08\u5927\u76db\u4e50\u6821\u533a\u5b66\u751f\u516c\u5bd34#\u697c","avgprice":0.0,"latitude":40.494469,"longitude":111.790434,"avgscore":0.0,"comments":0,"backCateName":"\u5976\u8336\/\u679c\u6c41","areaname":"\u548c\u6797\u683c\u5c14\u53bf","phone":null,"region":"\u548c\u6797\u683c\u5c14\u53bf\u76db\u4e50\u7ecf\u6d4e\u56ed\u533a","isMain":true,"city":"\u547c\u548c\u6d69\u7279"},{"index":29897,"id":154109813,"title":"\u91ce\u8611\u83c7\u571f\u9e21\u7c73\u7c89","address":"\u5929\u5c71\u533a\u5e78\u798f\u8def964\u53f7\uff08\u56e2\u6821\u8f66\u7ad9\u65c1\uff09","avgprice":18.0,"latitude":43.783621,"longitude":87.65226,"avgscore":4.6,"comments":1355,"backCateName":"\u7c73\u7c89","areaname":"\u5e78\u798f\u8def","region":"\u5929\u5c71\u533a","isMain":false,"city":"\u4e4c\u9c81\u6728\u9f50"},{"index":20593,"id":1657868265,"title":"IM\u8336\u4f11\u95f2\u9910\u5385\u5feb\u9910\u00b7\u70b8\u9e21\u00b7\u5976\u8336","address":"\u897f\u4e61\u5858\u533a\u5317\u6e56\u5317\u8def2\u53f7\u5357\u5b81\u5927\u5510\u5929\u57ce\u8d2d\u7269\u4e2d\u5fc3\u5546\u573a\u7b2cB1\u5c42\u7b2cB1-022\u53f7\u5546\u94fa\uff086\u53f7\u95e8\u65c1\uff09","avgprice":15.0,"latitude":22.845203,"longitude":108.322709,"avgscore":5.0,"comments":212,"backCateName":"\u5feb\u9910\u7b80\u9910","areaname":"\u660e\u79c0\u8def","region":"\u897f\u4e61\u5858\u533a","isMain":false,"city":"\u5357\u5b81"},{"index":602,"id":543853442,"title":"\u559c\u8336","address":"\u77f3\u666f\u5c71\u533a\u961c\u77f3\u8def300\u53f7\u4e00\u5c42118\u53f7","avgprice":32.0,"latitude":39.923161,"longitude":116.171223,"avgscore":5.0,"comments":0,"backCateName":"\u5976\u8336\/\u679c\u6c41","areaname":"\u82f9\u679c\u56ed","region":"\u77f3\u666f\u5c71\u533a","isMain":true,"city":"\u5317\u4eac"},{"index":11187,"id":192868163,"title":"\u91ce\u517d\u8865\u7ed9\u7ad9","address":"\u5357\u5c97\u533a\u5b66\u5e9c\u8def2\u53f7","avgprice":36.0,"latitude":45.721537,"longitude":126.611029,"avgscore":5.0,"comments":81,"backCateName":"\u5496\u5561\u5385","areaname":"\u51ef\u5fb7\u5e7f\u573a","region":"\u5357\u5c97\u533a","isMain":false,"city":"\u54c8\u5c14\u6ee8"},{"index":5064,"id":1437417748,"title":"\u8336\u5927\u7237","address":"\u6c99\u576a\u575d\u533a\u6c99\u6768\u8def\u4e00\u53f7\u8c6a\u8fc8\u5927\u53a6\u4e00\u697c","avgprice":11.0,"latitude":29.561936,"longitude":106.462307,"avgscore":5.0,"comments":237,"backCateName":"\u5976\u8336\/\u679c\u6c41","areaname":"\u91cd\u5e86\u5927\u5b66","region":"\u6c99\u576a\u575d\u533a","isMain":true,"city":"\u91cd\u5e86"},{"index":11997,"id":194658713,"title":"CoCo\u90fd\u53ef","address":"\u6d66\u53e3\u533a\u9f99\u534e\u8def3\u53f7\u91d1\u76db\u75301\u5c421F-24\u53f7","avgprice":13.0,"latitude":32.069347,"longitude":118.638885,"avgscore":4.6,"comments":45,"backCateName":"\u5976\u8336\/\u679c\u6c41","areaname":"\u6c5f\u6d66","region":"\u6d66\u53e3\u533a","isMain":true,"city":"\u5357\u4eac"},{"index":29886,"id":6445568,"title":"\u4e94\u8c37\u866b\u5b50\u9e21","address":"\u6c34\u78e8\u6c9f\u533a\u5357\u6e56\u5317\u8def2\u53f7","avgprice":73.0,"latitude":43.826743,"longitude":87.613624,"avgscore":4.8,"comments":1629,"backCateName":"\u5176\u4ed6\u7f8e\u98df","areaname":"\u5357\u6e56\u8def","region":"\u6c34\u78e8\u6c9f\u533a","isMain":false,"city":"\u4e4c\u9c81\u6728\u9f50"},{"index":7713,"id":1186682,"title":"Donut stop-\u7ad9\u4ead&\u6cf0\u5c3c\u6d3e","address":"\u8d5b\u7f55\u533a\u65b0\u534e\u4e1c\u885726\u53f7\u4e07\u8fbe\u5e7f\u573a3\u697c\uff08\u4e07\u8fbe\u5f71\u9662\u65c1\uff09","avgprice":11.0,"latitude":40.835997,"longitude":111.73604,"avgscore":4.5,"comments":4781,"backCateName":"\u9762\u5305\u751c\u70b9","areaname":"\u4e07\u8fbe","phone":null,"region":"\u8d5b\u7f55\u533a","isMain":false,"city":"\u547c\u548c\u6d69\u7279"},{"index":3762,"id":192113521,"title":"\u5948\u96ea\u7684\u8336","address":"\u9f99\u5c97\u533a\u6a2a\u5c97\u8857\u9053\u8363\u5fb7\u65f6\u4ee3\u5e7f\u573a1121","avgprice":41.0,"latitude":22.650897,"longitude":114.209849,"avgscore":4.0,"comments":12,"backCateName":"\u5976\u8336\/\u679c\u6c41","areaname":"\u6a2a\u5c97","region":"\u9f99\u5c97\u533a","isMain":true,"city":"\u6df1\u5733"},{"index":20411,"id":763398801,"title":"CoCo\u90fd\u53ef","address":"\u9752\u79c0\u533a\u5e7f\u897f\u7701\u5357\u5b81\u5e02\u9752\u79c0\u533a\u4ed9\u846b\u5bcc\u5174\u8def88\u53f7-4\u53f7\u5546\u94fa","avgprice":13.0,"latitude":22.808034,"longitude":108.447902,"avgscore":5.0,"comments":80,"backCateName":"\u5976\u8336\/\u679c\u6c41","areaname":"\u4ed9\u846b","region":"\u9752\u79c0\u533a","isMain":true,"city":"\u5357\u5b81"},{"index":20600,"id":195252747,"title":"\u8403\u8336\u5e08","address":"\u9095\u5b81\u533a\u826f\u5824\u8def6\u53f7\u4e07\u8fbe\u83022\u53f7\u95e8\u5e7f\u573a","avgprice":0.0,"latitude":22.767335,"longitude":108.433828,"avgscore":3.5,"comments":0,"backCateName":"\u5976\u8336\/\u679c\u6c41","areaname":"\u4e07\u8fbe\u8302","region":"\u9095\u5b81\u533a","isMain":true,"city":"\u5357\u5b81"},{"index":19724,"id":170564951,"title":"\u8336\u989c\u60a6\u8272","address":"\u8299\u84c9\u533a\u9ec4\u5174\u4e2d\u8def88\u53f7\u5e73\u548c\u5802\u767e\u8d27B1\u5c42","avgprice":17.0,"latitude":28.194466,"longitude":112.977001,"avgscore":5.0,"comments":1,"backCateName":"\u5976\u8336\/\u679c\u6c41","areaname":"\u4e94\u4e00\u5e7f\u573a","phone":null,"region":"\u8299\u84c9\u533a","isMain":true,"city":"\u957f\u6c99"},{"index":17719,"id":156612842,"title":"\u871c\u96ea\u51b0\u57ce","address":"\u4e2d\u539f\u533a\u9647\u6d77\u897f\u8def338\u53f7\u4e2d\u539f\u65b0\u57ce\u5927\u5546\u65b0\u739b\u7279\u4e3b\u95e8\u5317\u4fa7\u7b2c\u4e00\u95f4","avgprice":8.0,"latitude":34.735514,"longitude":113.614606,"avgscore":4.2,"comments":67,"backCateName":"\u5976\u8336\/\u679c\u6c41","areaname":"\u513f\u7ae5\u516c\u56ed\/\u51ef\u65cb\u95e8","region":"\u4e2d\u539f\u533a","isMain":true,"city":"\u90d1\u5dde"},{"index":21424,"id":81082796,"title":"\u862d\u82b3\u5712","address":"\u7f8e\u5170\u533a\u6d77\u79c0\u8def8\u53f7\u671b\u6d77\u56fd\u9645\u5546\u4e1a\u5e7f\u573a6\u697c\u4e2d\u5ead","avgprice":17.0,"latitude":20.030727,"longitude":110.34495,"avgscore":4.6,"comments":710,"backCateName":"\u5976\u8336\/\u679c\u6c41","areaname":"\u671b\u6d77\u56fd\u9645\u5e7f\u573a","region":"\u7f8e\u5170\u533a","isMain":true,"city":"\u6d77\u53e3"},{"index":23195,"id":1433011415,"title":"\u559c\u8336","address":"\u4e91\u5ca9\u533a\u4e2d\u534e\u4e2d\u8def108\u53f7\u56fd\u8d38\u5357\u56fd\u82b1\u9526\u8d2d\u7269\u5e7f\u573a2F-01","avgprice":29.0,"latitude":26.582029,"longitude":106.713121,"avgscore":4.5,"comments":0,"backCateName":"\u5976\u8336\/\u679c\u6c41","areaname":"\u55b7\u6c34\u6c60","region":"\u4e91\u5ca9\u533a","isMain":true,"city":"\u8d35\u9633"},{"index":15219,"id":187175203,"title":"85\u5ea6C","address":"\u664b\u5b89\u533a\u798f\u65b0\u8def127\u53f7\u5cb3\u5cf0\u5de5\u8d38\u7efc\u5408\u697c\uff08\u65b0\u7d2b\u9633\u5927\u9152\u5e97\uff09","avgprice":32.0,"latitude":26.08198,"longitude":119.32707,"avgscore":4.0,"comments":0,"backCateName":"\u9762\u5305\u86cb\u7cd5","areaname":"\u5cb3\u5cf0\u9547","region":"\u664b\u5b89\u533a","isMain":false,"city":"\u798f\u5dde"},{"index":27196,"id":171873223,"title":"\u8336\u7406\u4e00\u4e16","address":"\u57ce\u5173\u533a\u4f0f\u9f99\u576a1\u53f71\u5c42119\u53f7\u5546\u94fa","avgprice":0.0,"latitude":36.053499,"longitude":103.812641,"avgscore":0.0,"comments":0,"backCateName":"\u5976\u8336\/\u679c\u6c41","areaname":"\u767d\u94f6\u8def","region":"\u57ce\u5173\u533a","isMain":true,"city":"\u5170\u5dde"},{"index":717,"id":89474130,"title":"\u6912\u9e23\u6912\u9ebb\u5c0f\u9986","address":"\u6d77\u6dc0\u533a\u6210\u5e9c\u8def29\u53f7\u4e94\u9053\u53e3\u56fd\u9645\u98df\u5c1a\u82d1A\u533a1\u671f3\u5c42\uff08\u4e34\u8fd1\u5317\u4eac\u5927\u5b66\u3001\u6e05\u534e\u5927\u5b66\u3001\u5317\u8bed\u3001\u77ff\u5927\u3001\u6797\u5927\uff09","avgprice":58.0,"latitude":39.99335,"longitude":116.33849,"avgscore":5.0,"comments":3215,"backCateName":"\u65b0\u7586\u83dc","areaname":"\u4e94\u9053\u53e3","region":"\u6d77\u6dc0\u533a","isMain":false,"city":"\u5317\u4eac"},{"index":17921,"id":178078885,"title":"\u4e00\u82b3\u53f0\u6e7e\u6c34\u679c\u8336","address":"\u4e8c\u4e03\u533a\u5927\u5b66\u5357\u8def8\u53f7\u4e07\u8fbe\u91d1\u8857\u5317\u53e3\uff08\u6c49\u5821\u738b\u897f20\u7c73\uff09","avgprice":17.0,"latitude":34.719588,"longitude":113.642992,"avgscore":4.7,"comments":38,"backCateName":"\u5976\u8336\/\u679c\u6c41","areaname":"\u4e8c\u4e03\u4e07\u8fbe","region":"\u4e8c\u4e03\u533a","isMain":true,"city":"\u90d1\u5dde"},{"index":7258,"id":1378342934,"title":"\u5496\u5561\u4e4b\u7ffc","address":"\u8fce\u6cfd\u533a\u671d\u9633\u8857\u540c\u81f3\u4eba\u8d2d\u7269\u4e2d\u5fc37\u5c42N7015A","avgprice":51.0,"latitude":37.857483,"longitude":112.595819,"avgscore":4.1,"comments":24,"backCateName":"\u897f\u9910","areaname":"\u671d\u9633\u8857","region":"\u8fce\u6cfd\u533a","isMain":false,"city":"\u592a\u539f"},{"index":24910,"id":189069202,"title":"GT good taste \u5976\u8336\u5e97","address":"\u4e94\u534e\u533a\u4e94\u534e\u533a\u987a\u57ce\u8857\u4e1c\u98ce\u897f\u8def7-8\u53f7","avgprice":16.0,"latitude":25.036495,"longitude":102.70612,"avgscore":5.0,"comments":187,"backCateName":"\u5976\u8336\/\u679c\u6c41","areaname":"\u5357\u5c4f\u6b65\u884c\u8857","region":"\u4e94\u534e\u533a","isMain":true,"city":"\u6606\u660e"},{"index":15353,"id":1884757050,"title":"\u65f6\u9047\u86cb\u7cd5\u70d8\u7119\u5de5\u4f5c\u5ba4","address":"\u53f0\u6c5f\u533a\u6021\u56ed\u8def\u4e2d\u592e\u7b2c\u4e94\u88572\u53f7\u697c13\u5c421305","avgprice":27.0,"latitude":26.064079,"longitude":119.292185,"avgscore":5.0,"comments":17,"backCateName":"\u9762\u5305\u86cb\u7cd5","areaname":"\u4e07\u8c61\u57ce","region":"\u53f0\u6c5f\u533a","isMain":false,"city":"\u798f\u5dde"},{"index":9128,"id":656744495,"title":"\u7ff0\u7687\u7172\u4ed4\u7fc5\u8336\u9910\u5385","address":"\u6d51\u5357\u533a\u5168\u8fd0\u8def\u4e07\u8fbe\u56db\u697c","avgprice":58.0,"latitude":41.684602,"longitude":123.461019,"avgscore":4.0,"comments":1,"backCateName":"\u8336\u9910\u5385","areaname":"\u6d51\u5357\u533a","region":"\u6d51\u5357\u533a","isMain":false,"city":"\u6c88\u9633"},{"index":20366,"id":188001749,"title":"\u6709\u6599\u5927\u6ee1\u8d2f","address":"\u9752\u79c0\u533a\u6c11\u65cf\u5927\u9053131\u53f7\u4f1a\u5c55\u822a\u6d0b\u57ce\u5357\u5e7f\u573aL1-011\u94fa","avgprice":19.0,"latitude":22.813644,"longitude":108.385321,"avgscore":4.5,"comments":0,"backCateName":"\u5976\u8336\/\u679c\u6c41","areaname":"\u822a\u6d0b\u56fd\u9645","region":"\u9752\u79c0\u533a","isMain":true,"city":"\u5357\u5b81"},{"index":4328,"id":5319766,"title":"\u6caa\u4e0a\u963f\u59e8","address":"\u6cb3\u5317\u533a\u534e\u65b0\u5927\u8857\u4e0e\u6c34\u4ea7\u524d\u8857\u4ea4\u53e3\u897f\u5317\u89d2","avgprice":10.0,"latitude":39.164081,"longitude":117.216293,"avgscore":4.8,"comments":1095,"backCateName":"\u5976\u8336\/\u679c\u6c41","areaname":"\u738b\u4e32\u573a\/\u6c11\u6743\u95e8","region":"\u6cb3\u5317\u533a","isMain":true,"city":"\u5929\u6d25"},{"index":5931,"id":6839813,"title":"CoCo\u90fd\u53ef","address":"\u957f\u5b89\u533a\u4e2d\u5c71\u4e1c\u8def508\u53f7\u4e2d\u5c71\u4e1c\u80dc\u5e7f\u573a4F-13\u5546\u94fa","avgprice":10.0,"latitude":38.042847,"longitude":114.556171,"avgscore":5.0,"comments":3087,"backCateName":"\u5976\u8336\/\u679c\u6c41","areaname":"\u4e1c\u80dc\u5e7f\u573a","region":"\u957f\u5b89\u533a","isMain":true,"city":"\u77f3\u5bb6\u5e84"},{"index":25928,"id":1885097670,"title":"CoCo\u90fd\u53ef","address":"\u9ad8\u65b0\u533a\u9655\u897f\u7701\u897f\u5b89\u5e02\u96c1\u5854\u533a\u4e08\u516b\u8857\u529e\u9526\u4e1a\u8def7\u53f7\u76ca\u7530\u25aa\u5047\u65e5\u91ccB1-26\u53f7\u5546\u94fa","avgprice":13.0,"latitude":34.194469,"longitude":108.882696,"avgscore":4.5,"comments":25,"backCateName":"\u5976\u8336\/\u679c\u6c41","areaname":"\u7eff\u5730\u4e16\u7eaa\u57ce","region":"\u9ad8\u65b0\u533a","isMain":true,"city":"\u897f\u5b89"},{"index":20760,"id":6274070,"title":"\u6768\u5c0f\u8d24","address":"\u5174\u5b81\u533a\u671d\u9633\u8def29\u53f7\u897f\u5357\u5546\u90fd1\u5c42","avgprice":30.0,"latitude":22.814785,"longitude":108.321369,"avgscore":3.3,"comments":279,"backCateName":"\u9762\u5305\u751c\u70b9","areaname":"\u5174\u5b81\u533a","region":"\u5174\u5b81\u533a","isMain":false,"city":"\u5357\u5b81"},{"index":7932,"id":178845092,"title":"\u5477\u54fa\u5477\u54fa","address":"\u8d5b\u7f55\u533a\u65b0\u534e\u4e1c\u8def62\u53f7B1","avgprice":57.0,"latitude":40.830437,"longitude":111.709945,"avgscore":5.0,"comments":468,"backCateName":"\u5c0f\u706b\u9505","areaname":"\u6469\u5c14\u57ce","region":"\u8d5b\u7f55\u533a","isMain":false,"city":"\u547c\u548c\u6d69\u7279"},{"index":16591,"id":90053641,"title":"\u5fb7\u514b\u58eb","address":"\u69d0\u836b\u533a\u9633\u5149\u65b0\u8def19\u53f7\u7f8e\u4e50\u6c47\u5546\u573aB\u533a102\u53f7","avgprice":25.0,"latitude":36.63682,"longitude":116.98275,"avgscore":4.1,"comments":27,"backCateName":"\u897f\u5f0f\u5feb\u9910\/\u6c49\u5821","areaname":"\u9633\u5149\u65b0\u8def","region":"\u69d0\u836b\u533a","isMain":false,"city":"\u6d4e\u5357"},{"index":17560,"id":179757224,"title":"\u563f\u7cd6\u9c9c\u5976\u8336\u996e","address":"\u91d1\u6c34\u533a\u5546\u52a1\u5916\u73af\u8def\u4e39\u5c3c\u65af2\u5929\u57303\u697c","avgprice":12.0,"latitude":34.768996,"longitude":113.721445,"avgscore":4.8,"comments":317,"backCateName":"\u5976\u8336\/\u679c\u6c41","areaname":"\u90d1\u4e1c\u65b0\u533aCBD","region":"\u91d1\u6c34\u533a","isMain":true,"city":"\u90d1\u5dde"},{"index":13627,"id":169304202,"title":"come WONKA\u5361\u65fa\u5361","address":"\u5305\u6cb3\u533a\u8981\u7d20\u5927\u5e02\u573aA\u533a\u4e00\u5c42A-8\u5546\u94fa","avgprice":16.0,"latitude":31.751609,"longitude":117.284207,"avgscore":4.0,"comments":0,"backCateName":"\u5976\u8336\/\u679c\u6c41","areaname":"\u6ee8\u6e56\u4e16\u7eaa\u57ce","region":"\u5305\u6cb3\u533a","isMain":true,"city":"\u5408\u80a5"},{"index":9019,"id":194308812,"title":"\u6296\u8336","address":"\u5927\u4e1c\u533a\u6587\u5b98\u885781\u53f7\u6587\u5b98\u5e02\u573a20\u53f7\u95e8\u5e02","avgprice":10.0,"latitude":41.871567,"longitude":123.487142,"avgscore":3.0,"comments":8,"backCateName":"\u5976\u8336\/\u679c\u6c41","areaname":"\u6587\u5b98\u5c6f","region":"\u5927\u4e1c\u533a","isMain":true,"city":"\u6c88\u9633"},{"index":24992,"id":1275933417,"title":"\u8336\u767e\u9053","address":"\u57ce\u5173\u533a\u5929\u6d77\u8def","avgprice":0.0,"latitude":29.658632,"longitude":91.101974,"avgscore":0.0,"comments":0,"backCateName":"\u5976\u8336\/\u679c\u6c41","areaname":"\u5929\u6d77\u591c\u5e02","region":"\u57ce\u5173\u533a","isMain":true,"city":"\u62c9\u8428"},{"index":6226,"id":180543526,"title":"\u8336\u5976\u5706\u828b","address":"\u5e73\u5c71\u53bf\u5e73\u5149\u5927\u8857\u5e73\u5149\u5357\u5927\u885749\u53f7","avgprice":10.0,"latitude":38.255724,"longitude":114.206459,"avgscore":3.5,"comments":4,"backCateName":"\u5976\u8336\/\u679c\u6c41","areaname":"\u5e73\u5c71\u53bf\u4e2d\u5fc3\u57ce\u533a","region":"\u5e73\u5c71\u53bf\u5e73\u5149\u5927\u8857\u5e73\u5149\u5357\u5927\u885749\u53f7\u533a","isMain":true,"city":"\u77f3\u5bb6\u5e84"},{"index":18089,"id":168861889,"title":"\u7737\u8336","address":"\u4e2d\u539f\u533a\u68c9\u7eba\u897f\u8def\u9526\u827a\u57ceB\u533a4\u697c","avgprice":17.0,"latitude":34.76194,"longitude":113.609953,"avgscore":4.4,"comments":49,"backCateName":"\u5976\u8336\/\u679c\u6c41","areaname":"\u9526\u827a\u57ce","region":"\u4e2d\u539f\u533a","isMain":true,"city":"\u90d1\u5dde"},{"index":21569,"id":162028741,"title":"\u76ca\u79be\u5802","address":"\u9f99\u534e\u533a\u91d1\u9f99\u8def11\u53f7\u4e0a\u90a6\u767e\u6c47\u57ce\u975e\u697c\u5b87\u5546\u94fa-3\u53f7\u697cC\u533aF3C-1-03\u53f7\u94fa\u4f4d","avgprice":8.0,"latitude":20.020857,"longitude":110.324457,"avgscore":4.0,"comments":8,"backCateName":"\u5976\u8336\/\u679c\u6c41","areaname":"\u4e0a\u90a6\u767e\u6c47\u57ce","region":"\u9f99\u534e\u533a","isMain":true,"city":"\u6d77\u53e3"},{"index":16375,"id":1212216918,"title":"\u56db\u4e91\u5976\u76d6\u8d21\u8336","address":"\u5386\u4e0b\u533a\u9ed1\u864e\u6cc9\u897f\u8def\u5bbd\u539a\u91cc\u4fbf\u5b9c\u574a\u5317\u884c15\u7c73\uff08\u9ed1\u864e\u6cc9\u897f\u8def\u9ebb\u9ebb\u7684\u6912\u50b2\u5317\u4fa7\uff09","avgprice":15.0,"latitude":36.663491,"longitude":117.030437,"avgscore":4.2,"comments":28,"backCateName":"\u5976\u8336\/\u679c\u6c41","areaname":"\u4e16\u8302\u56fd\u9645\u5e7f\u573a","region":"\u5386\u4e0b\u533a","isMain":true,"city":"\u6d4e\u5357"},{"index":19307,"id":194311516,"title":"\u871c\u96ea\u51b0\u57ce","address":"\u96e8\u82b1\u533a\u4e95\u6e7e\u8def746\u53f7\u5f20\u7af9\u5e73\u79c1\u623f\u4e00\u697c\u95e8\u9762","avgprice":8.0,"latitude":28.122814,"longitude":113.025733,"avgscore":4.0,"comments":0,"backCateName":"\u5976\u8336\/\u679c\u6c41","areaname":"\u73af\u4fdd\u5b66\u9662\/\u79d1\u6280\u804c\u9662","region":"\u96e8\u82b1\u533a","isMain":true,"city":"\u957f\u6c99"},{"index":14928,"id":185138817,"title":"\u53e4\u8317","address":"\u95fd\u4faf\u53bf\u5357\u5c7f\u9547\u65d7\u6751\u6865\u4e0b\u8def107-2\u53f7","avgprice":15.0,"latitude":25.975757,"longitude":119.221296,"avgscore":3.5,"comments":6,"backCateName":"\u5976\u8336\/\u679c\u6c41","areaname":"\u95fd\u4faf\u53bf","region":"\u95fd\u4faf\u53bf\u5357\u5c7f\u9547\u65d7\u6751\u6865\u4e0b\u8def107-2\u53f7\u533a","isMain":true,"city":"\u798f\u5dde"},{"index":12803,"id":5172421,"title":"\u9047\u89c1\u5976\u725b","address":"\u8427\u5c71\u533a\u5b81\u56f4\u632f\u5b81\u8def678\u53f7\uff08\u6c99\u53bf\u5c0f\u5403\u4e1c5\u7c73\uff09","avgprice":13.0,"latitude":30.21551,"longitude":120.27131,"avgscore":4.2,"comments":450,"backCateName":"\u5976\u8336\/\u679c\u6c41","areaname":"\u8427\u5c71\u7ecf\u6d4e\u5f00\u53d1\u533a","phone":null,"region":"\u8427\u5c71\u533a","isMain":true,"city":"\u676d\u5dde"},{"index":8525,"id":157288366,"title":"\u82cf\u6cf0\u5976\u8336\u9986","address":"\u8d5b\u7f55\u533a\u5c55\u89c8\u9986\u4e1c\u8def\u5185\u8499\u53e4\u73af\u5883\u79d1\u5b66\u7814\u7a76\u9662\u5f80\u535710\u7c73\u8def\u897f","avgprice":0.0,"latitude":40.822722,"longitude":111.724302,"avgscore":3.0,"comments":0,"backCateName":"\u5185\u8499\u83dc","areaname":"\u4e4c\u5170\u5bdf\u5e03\u4e1c\u8857","region":"\u8d5b\u7f55\u533a","isMain":false,"city":"\u547c\u548c\u6d69\u7279"},{"index":6470,"id":187529542,"title":"MY.GIRLI\u871c\u83d3","address":"\u7075\u5bff\u53bf\u7075\u5bff\u9547\u5317\u73af\u8def\u5317\u56fd\u5546\u573a\u80a1\u4efd\u6709\u9650\u516c\u53f8\u7075\u5bff\u5206\u516c\u53f81F-C06\u53f7","avgprice":0.0,"latitude":38.315356,"longitude":114.377577,"avgscore":4.0,"comments":0,"backCateName":"\u5976\u8336\/\u679c\u6c41","areaname":"\u7075\u5bff\u53bf","region":"\u7075\u5bff\u53bf\u7075\u5bff\u9547\u5317\u73af\u8def\u5317\u56fd\u5546\u573a\u80a1\u4efd\u6709\u9650\u516c\u53f8\u7075\u5bff\u5206\u516c\u53f81F-C06\u53f7\u533a","isMain":true,"city":"\u77f3\u5bb6\u5e84"},{"index":27808,"id":73908723,"title":"\u70e7\u87f9\u5e2b\u5ddd\u5f0f\u6d77\u9c9c\u6599\u7406","address":"\u57ce\u897f\u533a\u529b\u76df\u5546\u4e1a\u6b65\u884c\u88578\u53f7\u697c\uff08\u7eba\u7ec7\u54c1\u5927\u697c\uff0c\u56fd\u82b3\u767e\u8d27\uff0c501\u60a6COFFEE\uff0c\uff09","avgprice":88.0,"latitude":36.62834,"longitude":101.758296,"avgscore":3.6,"comments":770,"backCateName":"\u6d77\u9c9c","areaname":"\u529b\u76df\u6b65\u884c\u8857","phone":null,"region":"\u57ce\u897f\u533a","isMain":false,"city":"\u897f\u5b81"},{"index":9560,"id":186491043,"title":"Sweet\u00b7T","address":"\u6d51\u5357\u533a\u5b66\u9662\u8def\u6d51\u5357\u6c34\u52a1\u96c6\u56e2\u6b63\u5bf9\u9762\u5efa\u7b51\u5927\u5b66\u4e1c\u95e8\u4e1c100\u7c73","avgprice":59.0,"latitude":41.745718,"longitude":123.524169,"avgscore":4.6,"comments":7,"backCateName":"\u5496\u5561\u5385","areaname":"\u6c88\u9633\u5efa\u7b51\u5927\u5b66","region":"\u6d51\u5357\u533a","isMain":false,"city":"\u6c88\u9633"},{"index":144,"id":158866145,"title":"\u871c\u96ea\u51b0\u57ce","address":"\u5bc6\u4e91\u533a\u9f13\u697c\u5357\u5927\u8857\u4e00\u5e62\u4e00\u5c42\u5357\u4fa75\u53f7","avgprice":6.0,"latitude":40.374075,"longitude":116.846161,"avgscore":3.5,"comments":60,"backCateName":"\u5976\u8336\/\u679c\u6c41","areaname":"\u5bc6\u4e91\u53bf\u53bf\u57ce","region":"\u5bc6\u4e91\u533a","isMain":true,"city":"\u5317\u4eac"},{"index":6296,"id":1727148119,"title":"\u5bb6\u8001\u7076\u706b\u9505\u9e21","address":"\u8f9b\u96c6\u5e02\u5174\u534e\u8def\u8001\u76ae\u9769\u57ce\u5546\u4e1a\u5e7f\u573a10\u53f7","avgprice":33.0,"latitude":37.937555,"longitude":115.216797,"avgscore":5.0,"comments":85,"backCateName":"\u7279\u8272\u706b\u9505","areaname":"\u5546\u4e1a\u57ce\u5546\u5708","region":"\u8f9b\u96c6\u5e02\u5174\u534e\u8def\u8001\u76ae\u9769\u57ce\u5546\u4e1a\u5e7f\u573a10\u53f7\u533a","isMain":false,"city":"\u77f3\u5bb6\u5e84"},{"index":12371,"id":163353841,"title":"1\u9ede\u9ede","address":"\u5efa\u90ba\u533a\u6587\u4f53\u8def99\u53f7\u8bdd\u56ed10\u5e6233\u53f7101\u5ba4","avgprice":14.0,"latitude":32.021496,"longitude":118.757576,"avgscore":3.5,"comments":0,"backCateName":"\u5976\u8336\/\u679c\u6c41","areaname":"\u83ab\u6101\u6e56\/\u6c34\u897f\u95e8","region":"\u5efa\u90ba\u533a","isMain":true,"city":"\u5357\u4eac"},{"index":6880,"id":113342537,"title":"\u4eab\u751c","address":"\u5c0f\u5e97\u533a\u4eb2\u8d24\u5317\u885779\u53f7","avgprice":14.0,"latitude":37.824161,"longitude":112.565512,"avgscore":4.9,"comments":1409,"backCateName":"\u5976\u8336\/\u679c\u6c41","areaname":"\u5c0f\u5e97\u533a","region":"\u5c0f\u5e97\u533a","isMain":true,"city":"\u592a\u539f"},{"index":16124,"id":2149099,"title":"\u80af\u5fb7\u57fa","address":"\u4e1c\u6e56\u533a\u53e0\u5c71\u8def487\u53f7","avgprice":30.0,"latitude":28.68433,"longitude":115.888993,"avgscore":4.0,"comments":0,"backCateName":"\u897f\u5f0f\u5feb\u9910\/\u6c49\u5821","areaname":"\u53e0\u5c71\u8def","region":"\u4e1c\u6e56\u533a","isMain":false,"city":"\u5357\u660c"},{"index":23057,"id":133733004,"title":"CoCo\u90fd\u53ef","address":"\u4e91\u5ca9\u533a\u5927\u8425\u5761\u9e7f\u51b2\u5173\u8def74\u53f7\u4e2d\u5927\u56fd\u9645\u8d2d\u7269\u4e2d\u5fc3L3\u5c42321\u53f7\u5546\u94fa","avgprice":13.0,"latitude":26.60418,"longitude":106.72118,"avgscore":5.0,"comments":470,"backCateName":"\u5976\u8336\/\u679c\u6c41","areaname":"\u4e2d\u5927\u56fd\u9645\u8d2d\u7269\u4e2d\u5fc3","region":"\u4e91\u5ca9\u533a","isMain":true,"city":"\u8d35\u9633"},{"index":19118,"id":5160157,"title":"\u7687\u51a0\u5e78\u798f\u91cc","address":"\u6d2a\u5c71\u533a\u6c11\u9662\u8def168\u53f7\u5f53\u4ee3\u5b66\u751f\u516c\u5bd3CD-08\u53f7","avgprice":28.0,"latitude":30.494382,"longitude":114.396974,"avgscore":4.6,"comments":2038,"backCateName":"\u9762\u5305\u86cb\u7cd5","areaname":"\u5149\u8c37\/\u9c81\u5df7","region":"\u6d2a\u5c71\u533a","isMain":false,"city":"\u6b66\u6c49"},{"index":28404,"id":2295118,"title":"\u80af\u5fb7\u57fa","address":"\u91d1\u51e4\u533a\u6b63\u6e90\u5317\u8857\u4e07\u8fbe\u91d1\u51e4\u5e7f\u573a1-2F\uff0c2\u53f7\u95e8","avgprice":30.0,"latitude":38.486189,"longitude":106.249047,"avgscore":3.5,"comments":0,"backCateName":"\u897f\u5f0f\u5feb\u9910\/\u6c49\u5821","areaname":"\u91d1\u51e4\u4e07\u8fbe","region":"\u91d1\u51e4\u533a","isMain":false,"city":"\u94f6\u5ddd"},{"index":4781,"id":160735359,"title":"\u5927\u5409\u5229\u00b7\u7cb5\u5f0f\u6d53\u9999\u725b\u4ec0\u9526","address":"\u5357\u5f00\u533a\u5bbe\u6c34\u897f\u9053\u5965\u57ce\u5546\u4e1a\u5e7f\u573a2\u53f7\u697c7\u53f7\u5546\u94fa\uff08\u5409\u91ce\u5bb6\u5bf9\u9762\uff09","avgprice":30.0,"latitude":39.078443,"longitude":117.170828,"avgscore":4.9,"comments":106,"backCateName":"\u6e2f\u5f0f\u5c0f\u5403","areaname":"\u65f6\u4ee3\u5965\u57ce","region":"\u5357\u5f00\u533a","isMain":false,"city":"\u5929\u6d25"},{"index":23721,"id":67923196,"title":"\u4e7e\u5370\u8d21\u8336","address":"\u5357\u660e\u533a\u65b0\u534e\u8def212\u53f7\u5927\u5267\u9662\u7535\u5f71\u57ce\u552e\u7968\u5927\u5385\u5de6\u4fa7","avgprice":12.0,"latitude":26.56329,"longitude":106.719506,"avgscore":4.4,"comments":669,"backCateName":"\u5976\u8336\/\u679c\u6c41","areaname":"\u5e02\u5357\u8def","region":"\u5357\u660e\u533a","isMain":true,"city":"\u8d35\u9633"},{"index":12031,"id":1715471335,"title":"\u54c8\u59c6\u7279\u5e03\u4e01\u8336\u996e","address":"\u79e6\u6dee\u533a\u6c49\u4e2d\u8def89\u53f7\u91d1\u9e70\u56fd\u9645\u8d2d\u7269\u4e2d\u5fc3B\u5ea7\u8d1f\u4e00\u5c42","avgprice":10.0,"latitude":32.041417,"longitude":118.778758,"avgscore":4.6,"comments":12,"backCateName":"\u5976\u8336\/\u679c\u6c41","areaname":"\u65b0\u8857\u53e3\/\u91d1\u8f6e\/\u4e94\u53f0\u5c71\u4f53\u80b2\u4e2d\u5fc3","region":"\u79e6\u6dee\u533a","isMain":true,"city":"\u5357\u4eac"},{"index":29866,"id":4717319,"title":"\u829d\u58eb\u5821","address":"\u65b0\u5e02\u533a\u5317\u4eac\u5317\u8def215\u53f7\uff08\u7f8e\u597d\u751f\u6d3b\u4fbf\u6c11\u5e97\u5185\u6863\u53e31-2\uff09","avgprice":20.0,"latitude":43.894629,"longitude":87.54498,"avgscore":5.0,"comments":316,"backCateName":"\u897f\u5f0f\u5feb\u9910\/\u6c49\u5821","areaname":"\u65b0\u5e02\u533a","region":"\u65b0\u5e02\u533a","isMain":false,"city":"\u4e4c\u9c81\u6728\u9f50"},{"index":26375,"id":159346068,"title":"\u543e\u996e\u826f\u54c1","address":"\u96c1\u5854\u533a\u5e08\u5927\u8defB-30\u53f7\u95e8\u9762\uff08\u5de5\u5546\u94f6\u884c\u65c1\uff09","avgprice":0.0,"latitude":34.205007,"longitude":108.949539,"avgscore":3.5,"comments":0,"backCateName":"\u5976\u8336\/\u679c\u6c41","areaname":"\u653f\u6cd5\/\u5e08\u5927","phone":null,"region":"\u96c1\u5854\u533a","isMain":true,"city":"\u897f\u5b89"},{"index":7362,"id":6287485,"title":"\u5fc5\u80dc\u5ba2","address":"\u5c0f\u5e97\u533a\u4eb2\u8d24\u5317\u8857189\u53f7\uff08\u6885\u56ed\u767e\u76db\u4e00\u5c42\u8d1f\u4e00\u5c42\uff09","avgprice":65.0,"latitude":37.82356,"longitude":112.56434,"avgscore":4.5,"comments":5,"backCateName":"\u62ab\u8428","areaname":"\u5c0f\u5e97\u533a","region":"\u5c0f\u5e97\u533a","isMain":false,"city":"\u592a\u539f"},{"index":24882,"id":5034225,"title":"\u732b\u7684\u5929\u7a7a\u4e4b\u57ce\u6982\u5ff5\u4e66\u5e97","address":"\u76d8\u9f99\u533a\u5317\u4eac\u8def928\u53f7\u6606\u660e\u5e7f\u573a3\u5c42","avgprice":38.0,"latitude":25.067896,"longitude":102.723922,"avgscore":4.3,"comments":382,"backCateName":"\u5496\u5561\u5385","areaname":"\u540c\u5fb7\u6606\u660e\u5e7f\u573a","region":"\u76d8\u9f99\u533a","isMain":false,"city":"\u6606\u660e"},{"index":2017,"id":560297487,"title":"\u4e66\u4ea6\u70e7\u4ed9\u8349","address":"\u756a\u79ba\u533a\u77f3\u57fa\u9547\u5c90\u5c71\u4e2d\u8def71\u53f7","avgprice":12.0,"latitude":22.956626,"longitude":113.438989,"avgscore":5.0,"comments":88,"backCateName":"\u5976\u8336\/\u679c\u6c41","areaname":"\u77f3\u57fa","region":"\u756a\u79ba\u533a","isMain":true,"city":"\u5e7f\u5dde"},{"index":6155,"id":164933087,"title":"\u534e\u83b1\u58eb\u00b7\u5168\u9e21\u6c49\u5821","address":"\u88d5\u534e\u533a\u9ad8\u65b0\u533a\u7941\u8fde\u8857\u540c\u7965\u57ceAB23-101","avgprice":15.0,"latitude":38.050317,"longitude":114.614066,"avgscore":3.9,"comments":13,"backCateName":"\u897f\u5f0f\u5feb\u9910\/\u6c49\u5821","areaname":"\u5929\u5c71\u6d77\u4e16\u754c","region":"\u88d5\u534e\u533a","isMain":false,"city":"\u77f3\u5bb6\u5e84"},{"index":18339,"id":92705321,"title":"\u6e2f\u996e\u4e4b\u6e2f","address":"\u6c49\u9633\u533a\u9f99\u9633\u5927\u905336\u53f71\u697c1A-35\u4f4d","avgprice":7.0,"latitude":30.560867,"longitude":114.209021,"avgscore":5.0,"comments":741,"backCateName":"\u5976\u8336\/\u679c\u6c41","areaname":"\u738b\u5bb6\u6e7e","region":"\u6c49\u9633\u533a","isMain":true,"city":"\u6b66\u6c49"},{"index":12395,"id":987325654,"title":"\u871c\u96ea\u51b0\u57ce","address":"\u9f13\u697c\u533a\u4e2d\u592e\u8def359-3","avgprice":7.0,"latitude":32.081681,"longitude":118.783856,"avgscore":4.0,"comments":0,"backCateName":"\u51b0\u6dc7\u6dcb","areaname":"\u5357\u745e\u8def\/\u65b0\u6a21\u8303\u9a6c\u8def","region":"\u9f13\u697c\u533a","isMain":false,"city":"\u5357\u4eac"},{"index":1920,"id":1730059373,"title":"\u871c\u96ea\u51b0\u57ce","address":"\u5929\u6cb3\u533a\u68e0\u4e0b\u4e0a\u793e\u53e3\u5c97\u65b0\u5927\u885741\u53f7","avgprice":9.0,"latitude":23.134642,"longitude":113.368312,"avgscore":5.0,"comments":288,"backCateName":"\u5976\u8336\/\u679c\u6c41","areaname":"\u5929\u6cb3\u516c\u56ed\/\u4e0a\u793e","region":"\u5929\u6cb3\u533a","isMain":true,"city":"\u5e7f\u5dde"},{"index":28496,"id":68353883,"title":"\u5377\u5377\u674e\u8001\u5317\u4eac\u9e21\u8089\u5377","address":"\u5174\u5e86\u533a\u88d5\u4e30\u5df7\u4e8c\u5341\u4e2d\u5bf9\u9762\u8363\u53d1\u5c0f\u533a5-104\u53f7","avgprice":10.0,"latitude":38.48321,"longitude":106.28677,"avgscore":4.8,"comments":105,"backCateName":"\u5c0f\u5403\u5feb\u9910","areaname":"\u65b0\u4e8c\u4e2d","region":"\u5174\u5e86\u533a","isMain":false,"city":"\u94f6\u5ddd"},{"index":17244,"id":917212,"title":"\u80af\u5fb7\u57fa","address":"\u5e02\u4e2d\u533a\u82f1\u96c4\u5c71\u8def161\u53f7\u94f6\u5ea7\u00b7\u5965\u7279\u83b1\u65afF1\u5c42","avgprice":29.0,"latitude":36.61403,"longitude":117.005101,"avgscore":4.0,"comments":3232,"backCateName":"\u897f\u5f0f\u5feb\u9910\/\u6c49\u5821","areaname":"\u4f1f\u4e1c\u65b0\u90fd","region":"\u5e02\u4e2d\u533a","isMain":false,"city":"\u6d4e\u5357"},{"index":5566,"id":195105477,"title":"\u8c46\u5409\u6c64\u5706\u5976\u8336","address":"\u6c99\u576a\u575d\u533a\u5c0f\u9f99\u574e\u65b0\u885799\u53f7\u96441-92\u53f7","avgprice":11.0,"latitude":29.559368,"longitude":106.461915,"avgscore":4.5,"comments":215,"backCateName":"\u5976\u8336\/\u679c\u6c41","areaname":"\u4e09\u5ce1\u5e7f\u573a","region":"\u6c99\u576a\u575d\u533a","isMain":true,"city":"\u91cd\u5e86"},{"index":25255,"id":619197514,"title":"\u871c\u96ea\u51b0\u57ce","address":"\u57ce\u5173\u533a\u62c9\u8428\u804c\u4e1a\u6280\u672f\u5b66\u9662","avgprice":0.0,"latitude":29.649312,"longitude":91.067857,"avgscore":0.0,"comments":0,"backCateName":"\u5976\u8336\/\u679c\u6c41","areaname":"\u516b\u4e00\u8def","region":"\u57ce\u5173\u533a","isMain":true,"city":"\u62c9\u8428"},{"index":21138,"id":190432341,"title":"\u8336\u989c\u89c2\u8272","address":"\u9f99\u534e\u533a\u7389\u6c99\u8def\u4e0e\u91d1\u9f99\u8def\u4ea4\u754c\u5904\u5341\u5b57\u8def\u53e3\u5609\u534e\u57ce\u5e02\u82b1\u56ed\u88d9\u697cB27-1-2\u623f","avgprice":16.0,"latitude":20.022244,"longitude":110.321101,"avgscore":3.9,"comments":55,"backCateName":"\u5976\u8336\/\u679c\u6c41","areaname":"\u7389\u6c99\u8def","region":"\u9f99\u534e\u533a","isMain":true,"city":"\u6d77\u53e3"},{"index":9757,"id":1762088306,"title":"\u4e00\u82b3\u53f0\u6e7e\u6c34\u679c\u8336","address":"\u671d\u9633\u533a\u7ea2\u65d7\u8857\u8fd9\u6709\u5c71\u5546\u573a3\u680b\u5916\u73af1-13","avgprice":18.0,"latitude":43.8668,"longitude":125.2931,"avgscore":5.0,"comments":50,"backCateName":"\u5976\u8336\/\u679c\u6c41","areaname":"\u7ea2\u65d7\u8857","region":"\u671d\u9633\u533a","isMain":true,"city":"\u957f\u6625"},{"index":14314,"id":4081764,"title":"\u5bfb\u828b\u8bb0\u751c\u54c1\u5e97","address":"\u5de2\u6e56\u5e02\u4eba\u6c11\u8def\u5546\u4e1a\u88574\u53f7\u697c4C125\u94fa\uff08\u4e91\u9f0e\u53f0\u7403\u4ff1\u4e50\u90e8\u697c\u4e0b\uff09","avgprice":17.0,"latitude":31.596295,"longitude":117.867802,"avgscore":3.9,"comments":4610,"backCateName":"\u9762\u5305\u751c\u70b9","areaname":"\u5b89\u5fb7\u5229\u8d2d\u7269\u4e2d\u5fc3","region":"\u5de2\u6e56\u5e02\u4eba\u6c11\u8def\u5546\u4e1a\u88574\u53f7\u697c4C125\u94fa\uff08\u4e91\u9f0e\u53f0\u7403\u4ff1\u4e50\u90e8\u697c\u4e0b\uff09\u533a","isMain":false,"city":"\u5408\u80a5"},{"index":23427,"id":2265978,"title":"\u5fb7\u514b\u58eb","address":"\u82b1\u6eaa\u533a\u6e05\u6eaa\u8def127\u53f7\uff08\u6e05\u534e\u4e2d\u5b66\u5bf9\u9762\uff09","avgprice":25.0,"latitude":26.43414,"longitude":106.67758,"avgscore":3.6,"comments":468,"backCateName":"\u897f\u5f0f\u5feb\u9910\/\u6c49\u5821","areaname":"\u5341\u5b57\u8857","region":"\u82b1\u6eaa\u533a","isMain":false,"city":"\u8d35\u9633"},{"index":9530,"id":193955713,"title":"\u65b0\u7586\u5473\u9053","address":"\u548c\u5e73\u533a\u957f\u767d\u5317\u8def336-3\u53f7","avgprice":61.0,"latitude":41.74952,"longitude":123.402608,"avgscore":4.8,"comments":85,"backCateName":"\u65b0\u7586\u83dc","areaname":"\u957f\u767d\u5c9b","region":"\u548c\u5e73\u533a","isMain":false,"city":"\u6c88\u9633"},{"index":29229,"id":160499973,"title":"\u543e\u996e\u826f\u54c1","address":"\u5929\u5c71\u533a\u4eba\u6c11\u8def126\u53f7","avgprice":15.0,"latitude":43.791079,"longitude":87.61395,"avgscore":3.5,"comments":3,"backCateName":"\u5976\u8336\/\u679c\u6c41","areaname":"\u5927\u897f\u95e8\u5546\u4e1a\u5708","region":"\u5929\u5c71\u533a","isMain":true,"city":"\u4e4c\u9c81\u6728\u9f50"},{"index":10385,"id":1508986972,"title":"\u9c9c\u996e\u5427","address":"\u4e8c\u9053\u533a\u4e2d\u6d77\u5bf0\u5b87\u5929\u4e0b\u5c0f\u533a\u4e8c\u671f\u6b27\u4e9a\u8d85\u5e02\u5317\u6e56\u4e8c\u5e97\u5185\u7535\u68af\u65c1","avgprice":0.0,"latitude":43.958039,"longitude":125.386881,"avgscore":3.5,"comments":0,"backCateName":"\u5976\u8336\/\u679c\u6c41","areaname":"\u5317\u6e56","region":"\u4e8c\u9053\u533a","isMain":true,"city":"\u957f\u6625"},{"index":8175,"id":834634707,"title":"\u672c\u5bab\u7684\u8336","address":"\u8d5b\u7f55\u533a\u9644\u4e2d\u4e1c\u5df7","avgprice":0.0,"latitude":40.809257,"longitude":111.693797,"avgscore":3.5,"comments":3,"backCateName":"\u5976\u8336\/\u679c\u6c41","areaname":"\u5185\u5927","region":"\u8d5b\u7f55\u533a","isMain":true,"city":"\u547c\u548c\u6d69\u7279"},{"index":7812,"id":181431676,"title":"\u6296\u8336","address":"\u56de\u6c11\u533a\u6d77\u4eae\u5e7f\u573a6\u697c","avgprice":15.0,"latitude":40.814422,"longitude":111.669744,"avgscore":5.0,"comments":126,"backCateName":"\u5976\u8336\/\u679c\u6c41","areaname":"\u6d77\u4eae","region":"\u56de\u6c11\u533a","isMain":true,"city":"\u547c\u548c\u6d69\u7279"},{"index":21015,"id":162960158,"title":"\u76ca\u79be\u5802","address":"\u5174\u5b81\u533a\u671d\u9633\u8def38\u53f7\u897f\u5357\u5546\u90fd\u4e00\u697c\uff08\u5929\u6865\u5e95\uff09","avgprice":8.0,"latitude":22.817824,"longitude":108.320242,"avgscore":4.1,"comments":888,"backCateName":"\u5976\u8336\/\u679c\u6c41","areaname":"\u671d\u9633\u5e7f\u573a","region":"\u5174\u5b81\u533a","isMain":true,"city":"\u5357\u5b81"},{"index":9501,"id":52458450,"title":"\u5feb\u4e50\u725b\u5976\u5427","address":"\u6c88\u6cb3\u533a\u5949\u5929\u8857\u7b2c\u4e03\u4e2d\u5b66\u5357\u884c30\u7c73","avgprice":0.0,"latitude":41.78541,"longitude":123.442654,"avgscore":3.5,"comments":0,"backCateName":"\u5976\u8336\/\u679c\u6c41","areaname":"\u5f69\u7535\u5854","phone":null,"region":"\u6c88\u6cb3\u533a","isMain":true,"city":"\u6c88\u9633"},{"index":28374,"id":40172838,"title":"\u871c\u83d3\u871c\u5236\u9c9c\u996e","address":"\u5174\u5e86\u533a\u9f13\u697c\u4e0e\u6b65\u884c\u8857\u4ea4\u53c9\u53e3\u4e1c\u5357\u89d2","avgprice":10.0,"latitude":38.464734,"longitude":106.280039,"avgscore":4.0,"comments":1294,"backCateName":"\u5976\u8336\/\u679c\u6c41","areaname":"\u9f13\u697c","region":"\u5174\u5e86\u533a","isMain":true,"city":"\u94f6\u5ddd"},{"index":25651,"id":1668076610,"title":"\u5feb\u4e50\u67e0\u6aac","address":"\u9ad8\u65b0\u533a\u65b0\u79d1\u5510\u5ef6\u8def\u4e0e\u79d1\u6280\u8def\u4ea4\u6c47\u5904\u9ad8\u65b0\u4e07\u8fbe\u5e7f\u573a4\u697c","avgprice":17.0,"latitude":34.208406,"longitude":108.891561,"avgscore":4.0,"comments":2,"backCateName":"\u5976\u8336\/\u679c\u6c41","areaname":"\u5510\u5ef6\u8def\u5357\u6bb5","region":"\u9ad8\u65b0\u533a","isMain":true,"city":"\u897f\u5b89"},{"index":26315,"id":1756152262,"title":"\u7f51\u9c7c\u7f51\u5496","address":"\u9ad8\u65b0\u533a\u9ad8\u65b0\u533a\u5510\u5ef6\u8def1\u53f7\u65fa\u5ea7\u56fd\u9645\u57ceD\u5ea7\u4e09\u697c","avgprice":0.0,"latitude":34.236178,"longitude":108.89177,"avgscore":4.0,"comments":1,"backCateName":"\u7f51\u5427\u7f51\u5496","areaname":"\u5510\u5ef6\u8def\u5357\u6bb5","region":"\u9ad8\u65b0\u533a","isMain":false,"city":"\u897f\u5b89"},{"index":16661,"id":1835267497,"title":"\u60a6\u8336ENJOYTEA","address":"\u5386\u4e0b\u533a\u9f99\u9a70\u8def\u897f\u848b\u5cea\u548c\u82d1\u56db\u5c42\u7efc\u5408\u5546\u4e1a\u697c\u4e00\u5c42C3\u53f7","avgprice":10.0,"latitude":36.630414,"longitude":117.111371,"avgscore":3.5,"comments":0,"backCateName":"\u5976\u8336\/\u679c\u6c41","areaname":"\u5386\u4e0b\u533a","region":"\u5386\u4e0b\u533a","isMain":true,"city":"\u6d4e\u5357"},{"index":7096,"id":70937436,"title":"\u5fc5\u80dc\u5ba2","address":"\u674f\u82b1\u5cad\u533a\u89e3\u653e\u5317\u8def169\u53f7\u4e07\u8fbe\u5e7f\u573a","avgprice":65.0,"latitude":37.88328,"longitude":112.56089,"avgscore":5.0,"comments":1,"backCateName":"\u62ab\u8428","areaname":"\u4e07\u8fbe\u5e7f\u573a","region":"\u674f\u82b1\u5cad\u533a","isMain":false,"city":"\u592a\u539f"},{"index":28927,"id":185833866,"title":"\u60a0\u6e34\u53e3\u6e34\u4e86","address":"\u897f\u590f\u533a\u6587\u8403\u5317\u8857\u5b81\u9633\u5e7f\u573a\u5185","avgprice":0.0,"latitude":38.487883,"longitude":106.136423,"avgscore":0.0,"comments":0,"backCateName":"\u5976\u8336\/\u679c\u6c41","areaname":"\u5b81\u590f\u5927\u5b66","phone":null,"region":"\u897f\u590f\u533a","isMain":true,"city":"\u94f6\u5ddd"},{"index":16133,"id":1579017191,"title":"\u9ed1\u6cf7\u5802\u5976\u8336","address":"\u5357\u660c\u53bf\u7ef4\u4e5f\u62c9\u5e7f\u573a","avgprice":0.0,"latitude":28.544252,"longitude":115.944225,"avgscore":0.0,"comments":0,"backCateName":"\u5976\u8336\/\u679c\u6c41","areaname":"\u6f84\u78a7\u6e56","phone":null,"region":"\u5357\u660c\u53bf\u7ef4\u4e5f\u62c9\u5e7f\u573a\u533a","isMain":true,"city":"\u5357\u660c"},{"index":9377,"id":193087579,"title":"\u7ae5\u8bdd\u516c\u4e3b\u5343\u5c42\u69b4\u83b2\u86cb\u7cd5\u5e97\u603b\u5e97","address":"\u5927\u4e1c\u533a\u8fbd\u6c88\u4e09\u885750\u53f78\u95e8","avgprice":30.0,"latitude":41.818767,"longitude":123.480682,"avgscore":3.5,"comments":0,"backCateName":"\u9762\u5305\u86cb\u7cd5","areaname":"\u5409\u7965\u5e02\u573a","region":"\u5927\u4e1c\u533a","isMain":false,"city":"\u6c88\u9633"},{"index":8597,"id":193640347,"title":"\u6c81\u8bed\u996e\u54c1\u5e97","address":"\u56de\u6c11\u533a\u897f\u987a\u57ce\u8857","avgprice":0.0,"latitude":40.798451,"longitude":111.644307,"avgscore":0.0,"comments":0,"backCateName":"\u5976\u8336\/\u679c\u6c41","areaname":"\u56de\u6c11\u533a","phone":null,"region":"\u56de\u6c11\u533a","isMain":true,"city":"\u547c\u548c\u6d69\u7279"},{"index":6004,"id":4109060,"title":"i-migoo\u5ddd\u753a\u592a\u90ce","address":"\u88d5\u534e\u533a\u6000\u7279\u5546\u4e1a\u5e7f\u573a\u56db\u5c42\u897f\u4fa7","avgprice":16.0,"latitude":38.023051,"longitude":114.523756,"avgscore":4.0,"comments":1625,"backCateName":"\u5feb\u9910\u7b80\u9910","areaname":"\u6000\u7279\u5546\u57ce","region":"\u88d5\u534e\u533a","isMain":false,"city":"\u77f3\u5bb6\u5e84"},{"index":26783,"id":584862078,"title":"\u7c73\u829d\u83b2","address":"\u5b89\u5b81\u533a\u5317\u6ee8\u6cb3\u897f\u8def","avgprice":0.0,"latitude":36.127996,"longitude":103.657222,"avgscore":3.5,"comments":0,"backCateName":"\u6e2f\u5f0f\u5c0f\u5403","areaname":"\u5b89\u5b81\u533a","phone":null,"region":"\u5b89\u5b81\u533a","isMain":false,"city":"\u5170\u5dde"},{"index":27488,"id":875159444,"title":"\u4e0d\u4e8c\u8336\u5ba4","address":"\u57ce\u4e2d\u533a\u82b1\u56ed\u5357\u885710\u53f7","avgprice":0.0,"latitude":36.617157,"longitude":101.789945,"avgscore":3.5,"comments":0,"backCateName":"\u5976\u8336\/\u679c\u6c41","areaname":"\u6e5f\u5149","region":"\u57ce\u4e2d\u533a","isMain":true,"city":"\u897f\u5b81"},{"index":13730,"id":164962285,"title":"\u9ed1\u6cf7\u592a\u90ceKUROTAKI","address":"\u8700\u5c71\u533a\u6f5c\u5c71\u8def\u5929\u73d1\u5e7f\u573a\u4e00\u697c\u897f\u95e8\u8f89\u54e5\u706b\u9505\u540e\u957f\u58f9\u9152\u4e1a\u65c1","avgprice":13.0,"latitude":31.802312,"longitude":117.233483,"avgscore":5.0,"comments":116,"backCateName":"\u5976\u8336\/\u679c\u6c41","areaname":"\u5929\u73d1\u5e7f\u573a","region":"\u8700\u5c71\u533a","isMain":true,"city":"\u5408\u80a5"},{"index":22428,"id":192077264,"title":"\u4e38\u6469\u5802","address":"\u91d1\u725b\u533a\u957f\u5e86\u8def10\u53f7\u964437\u53f72\u680b1\u697c14\u53f7","avgprice":14.0,"latitude":30.707486,"longitude":104.039628,"avgscore":4.0,"comments":46,"backCateName":"\u5976\u8336\/\u679c\u6c41","areaname":"\u897f\u5357\u4ea4\u5927","region":"\u91d1\u725b\u533a","isMain":true,"city":"\u6210\u90fd"},{"index":8455,"id":165825620,"title":"\u767e\u5409\u7eb3\u5976\u8336\u9986","address":"\u91d1\u5ddd\u5f00\u53d1\u533a\u91d1\u5ddd\u5f00\u53d1\u533a\u516c\u5143\u5927\u9053\u5c0f\u533aB\u680b3\u53f7\u5546\u94fa","avgprice":0.0,"latitude":40.779551,"longitude":111.540479,"avgscore":0.0,"comments":0,"backCateName":"\u5feb\u9910\u7b80\u9910","areaname":"\u91d1\u5ddd\u5f00\u53d1\u533a","region":"\u91d1\u5ddd\u5f00\u53d1\u533a","isMain":false,"city":"\u547c\u548c\u6d69\u7279"},{"index":10935,"id":1510624949,"title":"\u80af\u5fb7\u57fa","address":"\u9053\u91cc\u533a\u4e2d\u592e\u5927\u8857259\u53f7","avgprice":30.0,"latitude":45.779996,"longitude":126.617801,"avgscore":4.0,"comments":0,"backCateName":"\u897f\u5f0f\u5feb\u9910\/\u6c49\u5821","areaname":"\u4e2d\u592e\u5927\u8857\u7d22\u83f2\u4e9a\u5e7f\u573a","region":"\u9053\u91cc\u533a","isMain":false,"city":"\u54c8\u5c14\u6ee8"},{"index":21881,"id":18877,"title":"\u7433\u7405\u70d8\u7119","address":"\u9f99\u534e\u533a\u91d1\u76d8\u8def\u91d1\u78a7\u96c5\u82d1\u9996\u5c4212\u53f7\u94fa\u4f4d\uff08\u4e2d\u56fd\u5efa\u8bbe\u94f6\u884c\u65c1\uff09","avgprice":12.0,"latitude":19.991356,"longitude":110.317797,"avgscore":4.8,"comments":1495,"backCateName":"\u9762\u5305\u86cb\u7cd5","areaname":"\u91d1\u76d8","region":"\u9f99\u534e\u533a","isMain":false,"city":"\u6d77\u53e3"},{"index":27678,"id":164308459,"title":"\u5929\u5e9c\u638c\u67dc","address":"\u57ce\u4e1c\u533a\u5efa\u56fd\u5927\u8857\u4e2d\u53d1\u6e90\u65f6\u4ee3\u5e7f\u573a4\u697c\uff08\u4e07\u8fbe\u5f71\u57ce\u65c1\uff09","avgprice":19.0,"latitude":36.61106,"longitude":101.805435,"avgscore":5.0,"comments":102,"backCateName":"\u5ddd\u5473\u5c0f\u5403","areaname":"\u706b\u8f66\u7ad9","region":"\u57ce\u4e1c\u533a","isMain":false,"city":"\u897f\u5b81"},{"index":15754,"id":594099604,"title":"\u53e4\u8317","address":"\u4e1c\u6e56\u533a\u8001\u8d21\u9662\u5df7","avgprice":15.0,"latitude":28.676111,"longitude":115.905591,"avgscore":3.5,"comments":0,"backCateName":"\u5976\u8336\/\u679c\u6c41","areaname":"\u516b\u4e00\u5e7f\u573a\/\u7701\u5e9c","region":"\u4e1c\u6e56\u533a","isMain":true,"city":"\u5357\u660c"},{"index":8796,"id":977656942,"title":"\u871c\u96ea\u51b0\u57ce","address":"\u94c1\u897f\u533a\u4e91\u5cf0\u5317\u885723-2\u53f7\uff081\u95e8\uff09","avgprice":5.0,"latitude":41.797096,"longitude":123.382159,"avgscore":4.0,"comments":32,"backCateName":"\u5976\u8336\/\u679c\u6c41","areaname":"\u4e91\u5cf0\u8857","region":"\u94c1\u897f\u533a","isMain":true,"city":"\u6c88\u9633"},{"index":11853,"id":42881821,"title":"CoCo\u90fd\u53ef","address":"\u79e6\u6dee\u533a\u957f\u4e50\u8def137\u53f7101\u5ba4","avgprice":13.0,"latitude":32.016033,"longitude":118.790781,"avgscore":5.0,"comments":499,"backCateName":"\u5976\u8336\/\u679c\u6c41","areaname":"\u592b\u5b50\u5e99\/\u6c34\u6e38\u57ce","region":"\u79e6\u6dee\u533a","isMain":true,"city":"\u5357\u4eac"},{"index":26336,"id":1516161368,"title":"\u6cf0\u9999\u7c73\u6cf0\u56fd\u9910\u5385","address":"\u672a\u592e\u533a\u51e4\u57ce\u4e03\u8def51\u53f7\u5927\u878d\u57ce\u8d2d\u7269\u4e2d\u5fc35\u5c4220-21-22\u5ba4","avgprice":133.0,"latitude":34.338682,"longitude":108.948672,"avgscore":3.1,"comments":41,"backCateName":"\u6cf0\u56fd\u83dc","areaname":"\u672a\u592e\u8def","region":"\u672a\u592e\u533a","isMain":false,"city":"\u897f\u5b89"},{"index":5176,"id":158921060,"title":"\u4e61\u6751\u57fa","address":"\u6e1d\u5317\u533a\u53cc\u6e56\u8def\u6c34\u6728\u5929\u5730\u5e7f\u573a1\u53f7\u697c1\u5c42A28\u53f7","avgprice":23.0,"latitude":29.697,"longitude":106.617553,"avgscore":3.7,"comments":233,"backCateName":"\u5feb\u9910\u7b80\u9910","areaname":"\u4e00\u7897\u6c34","region":"\u6e1d\u5317\u533a","isMain":false,"city":"\u91cd\u5e86"},{"index":4200,"id":194897399,"title":"the family\u81ea\u5bb6","address":"\u6b66\u6e05\u533a\u4e1c\u84b2\u6d3c\u8857\u4fdd\u5229\u4e0a\u6cb3\u96c5\u82d1\u5357\u91cc24\u53f7\u697c3-104\u53f7\u5546\u94fa","avgprice":10.0,"latitude":39.379754,"longitude":117.035075,"avgscore":4.2,"comments":22,"backCateName":"\u5976\u8336\/\u679c\u6c41","areaname":"\u4fdd\u5229\/\u4ea8\u901a\u82b1\u56ed","region":"\u6b66\u6e05\u533a","isMain":true,"city":"\u5929\u6d25"},{"index":5788,"id":181450993,"title":"\u871c\u96ea\u51b0\u57ce","address":"\u88d5\u534e\u533a\u5efa\u8bbe\u5357\u5927\u8857\u6cb3\u5317\u5e08\u8303\u5927\u5b66\u65b0\u6821\u533a\u897f\u95e8\u79d1\u6280\u697c\u5e95\u5546","avgprice":0.0,"latitude":37.99676,"longitude":114.51402,"avgscore":4.0,"comments":0,"backCateName":"\u5976\u8336\/\u679c\u6c41","areaname":"\u5e08\u8303\u5927\u5b66","region":"\u88d5\u534e\u533a","isMain":true,"city":"\u77f3\u5bb6\u5e84"},{"index":3731,"id":1459726196,"title":"\u8336\u4e0d\u6613","address":"\u5357\u5c71\u533a\u9ad8\u65b0\u4e2d\u4e00\u9053\u79d1\u5174\u79d1\u5b66\u56edA3\u680b113E","avgprice":18.0,"latitude":22.549408,"longitude":113.942798,"avgscore":3.5,"comments":0,"backCateName":"\u5976\u8336\/\u679c\u6c41","areaname":"\u79d1\u6280\u56ed","region":"\u5357\u5c71\u533a","isMain":true,"city":"\u6df1\u5733"},{"index":15375,"id":1919198916,"title":"\u9c9c\u4e4b\u9187","address":"\u7ea2\u8c37\u6ee9\u533a\u6c99\u4e95\u8def\u7ea2\u8c37\u6ee9\u4e07\u8fbe\u91d1\u88571\u697c\u4e48\u4e48\u70e4\u8089\u65c1","avgprice":16.0,"latitude":28.69184,"longitude":115.84798,"avgscore":5.0,"comments":505,"backCateName":"\u5976\u8336\/\u679c\u6c41","areaname":"\u4e07\u8fbe\u5e7f\u573a","region":"\u7ea2\u8c37\u6ee9\u533a","isMain":true,"city":"\u5357\u660c"},{"index":22771,"id":41633635,"title":"CoCo\u90fd\u53ef","address":"\u6b66\u4faf\u533a\u6210\u90fd\u9ad8\u65b0\u533a\u5929\u4ec1\u8def388\u53f7\u51ef\u5fb7\u5e7f\u573a\u8d1f1-28B","avgprice":13.0,"latitude":30.60357,"longitude":104.069275,"avgscore":5.0,"comments":416,"backCateName":"\u5976\u8336\/\u679c\u6c41","areaname":"\u706b\u8f66\u5357\u7ad9","region":"\u6b66\u4faf\u533a","isMain":true,"city":"\u6210\u90fd"},{"index":17637,"id":136064265,"title":"CoCo\u90fd\u53ef","address":"\u91d1\u6c34\u533a\u6587\u5316\u8def\u5317\u4e09\u73af\u4e1c\u5357\u89d2\u701a\u6d77\u5317\u91d1\u56db\u697c","avgprice":13.0,"latitude":34.809,"longitude":113.666224,"avgscore":5.0,"comments":250,"backCateName":"\u5976\u8336\/\u679c\u6c41","areaname":"\u701a\u6d77\u5317\u91d1","region":"\u91d1\u6c34\u533a","isMain":true,"city":"\u90d1\u5dde"},{"index":26257,"id":1453921415,"title":"ZIMO\u5b50\u58a8\u5496\u5561","address":"\u96c1\u5854\u533a\u5174\u5584\u5bfa\u897f\u8857\u5c0f\u5be8\u8def\u6d3e\u51fa\u6240\u65c1\u9886\u7ee3\u57ce\u8d1f\u4e00\u697c","avgprice":26.0,"latitude":34.224997,"longitude":108.945332,"avgscore":5.0,"comments":123,"backCateName":"\u5496\u5561\u5385","areaname":"\u5c0f\u5be8","region":"\u96c1\u5854\u533a","isMain":false,"city":"\u897f\u5b89"},{"index":2753,"id":92842136,"title":"CoCo\u90fd\u53ef","address":"\u5929\u6cb3\u533a\u9ec4\u57d4\u5927\u9053\u68e0\u77f3\u8def\u65b0\u666f\u5e02\u573a14\u53f7\u94fa","avgprice":13.0,"latitude":23.12455,"longitude":113.36966,"avgscore":5.0,"comments":180,"backCateName":"\u5976\u8336\/\u679c\u6c41","areaname":"\u5929\u6cb3\u516c\u56ed\/\u4e0a\u793e","region":"\u5929\u6cb3\u533a","isMain":true,"city":"\u5e7f\u5dde"},{"index":24794,"id":192651233,"title":"RoyalTea\u7687\u8336","address":"\u5b98\u6e21\u533a\u73af\u57ce\u5357\u8def1139\u53f7","avgprice":0.0,"latitude":25.023618,"longitude":102.716736,"avgscore":3.5,"comments":0,"backCateName":"\u5976\u8336\/\u679c\u6c41","areaname":"\u6606\u660e\u7ad9","region":"\u5b98\u6e21\u533a","isMain":true,"city":"\u6606\u660e"},{"index":20698,"id":178839031,"title":"\u76ca\u79be\u5802","address":"\u6c5f\u5357\u533a\u667a\u548c\u8def33\u53f7\u5bcc\u5eb7\u56ed9\u680b105\u53f7\u5546\u94fa","avgprice":9.0,"latitude":22.785618,"longitude":108.229035,"avgscore":4.0,"comments":133,"backCateName":"\u5976\u8336\/\u679c\u6c41","areaname":"\u534e\u5357\u57ce\u5546\u5708","region":"\u6c5f\u5357\u533a","isMain":true,"city":"\u5357\u5b81"},{"index":22863,"id":179937314,"title":"\u4e61\u6751\u57fa","address":"\u6b66\u4faf\u533a\u5929\u5e9c\u5927\u9053\u5929\u5e9c\u8f6f\u4ef6\u56edE6-3","avgprice":20.0,"latitude":30.537711,"longitude":104.068578,"avgscore":4.0,"comments":7,"backCateName":"\u5feb\u9910\u7b80\u9910","areaname":"\u94f6\u6cf0\u57ce","region":"\u6b66\u4faf\u533a","isMain":false,"city":"\u6210\u90fd"},{"index":25289,"id":1723935772,"title":"MY.girl\u871c\u83d3","address":"\u57ce\u5173\u533a\u6c5f\u82cf\u8def15\u53f7","avgprice":0.0,"latitude":29.64643,"longitude":91.13942,"avgscore":0.0,"comments":0,"backCateName":"\u5976\u8336\/\u679c\u6c41","areaname":"\u5927\u662d\u5bfa\/\u516b\u5ed3\u8857","region":"\u57ce\u5173\u533a","isMain":true,"city":"\u62c9\u8428"},{"index":8761,"id":1966549372,"title":"\u8336\u91cc\u871c\u65af","address":"\u6c88\u6cb3\u533a\u5c0f\u5317\u5173\u8857\u5357\u5c71\u4e1c\u5821\u8def49\u53f745\u95e8","avgprice":0.0,"latitude":41.815545,"longitude":123.45015,"avgscore":5.0,"comments":13,"backCateName":"\u5976\u8336\/\u679c\u6c41","areaname":"\u5317\u7ad9\/\u5e02\u5e9c","region":"\u6c88\u6cb3\u533a","isMain":true,"city":"\u6c88\u9633"},{"index":13646,"id":151117899,"title":"\u756a\u85af\u738b\u5b50","address":"\u80a5\u4e1c\u53bf\u5e97\u57e0\u9547\u6865\u5934\u96c6\u8def\u4e0e\u53e4\u6cb3\u8def\u4ea4\u53e3\u751f\u6d3b\u5e7f\u573a\u5185\u4e00\u5c42B-102\u53f7","avgprice":0.0,"latitude":31.887423,"longitude":117.449166,"avgscore":5.0,"comments":162,"backCateName":"\u5976\u8336\/\u679c\u6c41","areaname":"\u80a5\u4e1c\u53bf","region":"\u80a5\u4e1c\u53bf\u5e97\u57e0\u9547\u6865\u5934\u96c6\u8def\u4e0e\u53e4\u6cb3\u8def\u4ea4\u53e3\u751f\u6d3b\u5e7f\u573a\u5185\u4e00\u5c42B-102\u53f7\u533a","isMain":true,"city":"\u5408\u80a5"},{"index":12232,"id":187038547,"title":"\u5948\u96ea\u7684\u8336","address":"\u9f13\u697c\u533a\u6e05\u51c9\u95e8\u5927\u88571\u53f7\u4e2d\u6d77\u73af\u5b87\u57ce\u4e00\u697c","avgprice":40.0,"latitude":32.044735,"longitude":118.752854,"avgscore":4.4,"comments":14,"backCateName":"\u5976\u8336\/\u679c\u6c41","areaname":"\u73af\u5b87\u57ce","region":"\u9f13\u697c\u533a","isMain":true,"city":"\u5357\u4eac"},{"index":14164,"id":40091249,"title":"\u694a\u570b\u798f\u9ebb\u8fa3\u70eb","address":"\u5305\u6cb3\u533a\u829c\u6e56\u8def\u4e07\u8fbe\u5e7f\u573a\u5ba4\u5916\u6b65\u884c\u88572\u697c","avgprice":19.0,"latitude":31.857045,"longitude":117.303503,"avgscore":3.9,"comments":5361,"backCateName":"\u9ebb\u8fa3\u70eb","areaname":"\u4e07\u8fbe\u5e7f\u573a","region":"\u5305\u6cb3\u533a","isMain":false,"city":"\u5408\u80a5"},{"index":28080,"id":186574439,"title":"BAIDU\u996e\u54c1","address":"\u57ce\u5317\u533a\u9526\u7ee3\u8def","avgprice":0.0,"latitude":36.733047,"longitude":101.7494,"avgscore":0.0,"comments":0,"backCateName":"\u5976\u8336\/\u679c\u6c41","areaname":"\u9752\u6d77\u5927\u5b66","region":"\u57ce\u5317\u533a","isMain":true,"city":"\u897f\u5b81"},{"index":1224,"id":501974692,"title":"CoCo\u90fd\u53ef","address":"\u6d66\u4e1c\u65b0\u533a\u6d66\u4e1c\u533a\u6c38\u6cf0\u8def1058\u5f041-26\u53f7","avgprice":13.0,"latitude":31.14214,"longitude":121.52534,"avgscore":5.0,"comments":180,"backCateName":"\u5976\u8336\/\u679c\u6c41","areaname":"\u4e16\u535a\u56ed","region":"\u6d66\u4e1c\u65b0\u533a","isMain":true,"city":"\u4e0a\u6d77"},{"index":26683,"id":1178579524,"title":"\u6f9c\u8336","address":"\u57ce\u5173\u533a\u7518\u8083\u7701\u5170\u5dde\u5e02\u57ce\u5173\u533a\u6b63\u5b81\u8def309\u53f7","avgprice":14.0,"latitude":36.053562,"longitude":103.821335,"avgscore":4.3,"comments":9,"backCateName":"\u5976\u8336\/\u679c\u6c41","areaname":"\u53cc\u57ce\u95e8","region":"\u57ce\u5173\u533a","isMain":true,"city":"\u5170\u5dde"},{"index":12475,"id":179501567,"title":"\u7d20\u5320\u00b7\u6cf0\u8336Prime\u2019s thai tea","address":"\u96e8\u82b1\u53f0\u533a\u96e8\u82b1\u897f\u8def101-6\u53f7","avgprice":18.0,"latitude":32.00186,"longitude":118.770355,"avgscore":3.5,"comments":2,"backCateName":"\u5976\u8336\/\u679c\u6c41","areaname":"\u96e8\u82b1\u53f0\u533a","region":"\u96e8\u82b1\u53f0\u533a","isMain":true,"city":"\u5357\u4eac"},{"index":29029,"id":187898515,"title":"\u7c73\u659b\u8336\u9662","address":"\u91d1\u51e4\u533a\u96ea\u7ed2\u5df7182\u53f7","avgprice":0.0,"latitude":38.481072,"longitude":106.237003,"avgscore":0.0,"comments":0,"backCateName":"\u5976\u8336\/\u679c\u6c41","areaname":"\u5f00\u53d1\u533a","phone":null,"region":"\u91d1\u51e4\u533a","isMain":true,"city":"\u94f6\u5ddd"},{"index":3196,"id":178774165,"title":"\u5c0a\u5b9d\u6bd4\u8428","address":"\u5357\u5c71\u533a\u897f\u4e3d\u8857\u9053\u897f\u4e3d\u5357\u8def53\u53f7-5\u5546\u94fa","avgprice":36.0,"latitude":22.574271,"longitude":113.95213,"avgscore":5.0,"comments":59,"backCateName":"\u62ab\u8428","areaname":"\u897f\u4e3d","region":"\u5357\u5c71\u533a","isMain":false,"city":"\u6df1\u5733"},{"index":27658,"id":162055855,"title":"\u5c0f\u9e7f\u62ab\u8428","address":"\u57ce\u897f\u533a\u4e94\u56db\u5927\u8857\u529b\u76df\u5546\u4e1a\u5df719\u53f7\u697c108\u5927\u98df\u5df7\u7f8e\u98df\u57ce\u697c\u4e0b","avgprice":51.0,"latitude":36.63077,"longitude":101.75833,"avgscore":3.9,"comments":662,"backCateName":"\u62ab\u8428","areaname":"\u529b\u76df\u6b65\u884c\u8857","region":"\u57ce\u897f\u533a","isMain":false,"city":"\u897f\u5b81"},{"index":12901,"id":163348655,"title":"1\u9ede\u9ede","address":"\u4f59\u676d\u533a\u4e1c\u6e56\u5317\u8def96\u53f7","avgprice":15.0,"latitude":30.432833,"longitude":120.304743,"avgscore":4.0,"comments":0,"backCateName":"\u5976\u8336\/\u679c\u6c41","areaname":"\u4e34\u5e73\u8001\u8857","region":"\u4f59\u676d\u533a","isMain":true,"city":"\u676d\u5dde"},{"index":2009,"id":628974,"title":"\u5927\u5361\u53f8DAKASI","address":"\u5929\u6cb3\u533a\u5929\u6cb3\u8def228\u53f7\u6b63\u4f73\u8d2d\u7269\u5e7f\u573a\u5939\u697cG003\u4e4b\u4e00\u94fa\uff08\u8fd1\u4f53\u80b2\u4e2d\u5fc3\uff09","avgprice":14.0,"latitude":23.13229,"longitude":113.326921,"avgscore":3.8,"comments":235,"backCateName":"\u5976\u8336\/\u679c\u6c41","areaname":"\u6b63\u4f73\u5e7f\u573a","region":"\u5929\u6cb3\u533a","isMain":true,"city":"\u5e7f\u5dde"},{"index":10238,"id":42402938,"title":"313\u7f8a\u5e84","address":"\u7ecf\u6d4e\u5f00\u53d1\u533a\u4e34\u6cb3\u8857\u4e0e\u4e1c\u5357\u6e56\u5927\u8def\u4ea4\u53c9\u53e3\u5317\u884c100\u7c73\u8def\u897f","avgprice":68.0,"latitude":43.853392,"longitude":125.364353,"avgscore":4.0,"comments":1314,"backCateName":"\u725b\u7f8a\u8089\u706b\u9505","areaname":"\u7ecf\u6d4e\u5f00\u53d1\u533a","region":"\u7ecf\u6d4e\u5f00\u53d1\u533a","isMain":false,"city":"\u957f\u6625"},{"index":16102,"id":184380882,"title":"\u5976\u833637\u2103","address":"\u65b0\u5efa\u533a\u65b0\u5efa\u533a\u65b0\u5efa\u5927\u9053355\u53f7\u4e00\u697c","avgprice":0.0,"latitude":28.691545,"longitude":115.815399,"avgscore":0.0,"comments":0,"backCateName":"\u5976\u8336\/\u679c\u6c41","areaname":"\u65b0\u5efa\u533a","region":"\u65b0\u5efa\u533a","isMain":true,"city":"\u5357\u660c"},{"index":18362,"id":703337171,"title":"\u6caa\u4e0a\u963f\u59e8","address":"\u6c5f\u6c49\u533a\u6e56\u5317\u7701\u6b66\u6c49\u5e02\u6c5f\u6c49\u533a\u4e07\u677e\u56ed\u8def86\u53f7","avgprice":15.0,"latitude":30.584686,"longitude":114.26833,"avgscore":3.5,"comments":4,"backCateName":"\u5976\u8336\/\u679c\u6c41","areaname":"\u6b66\u5546\u5e7f\u573a","region":"\u6c5f\u6c49\u533a","isMain":true,"city":"\u6b66\u6c49"},{"index":8974,"id":915663786,"title":"\u8336\u592a\u826f\u54c1\u00b7\u5976\u8336\u7814\u7a76\u6240","address":"\u5927\u4e1c\u533a\u5927\u60a6\u57ceB\u9986\u8d1f\u4e00\u5c42","avgprice":15.0,"latitude":41.801899,"longitude":123.466782,"avgscore":4.0,"comments":4,"backCateName":"\u5976\u8336\/\u679c\u6c41","areaname":"\u4e1c\u4e2d\u8857","region":"\u5927\u4e1c\u533a","isMain":true,"city":"\u6c88\u9633"},{"index":24526,"id":189904137,"title":"\u5bf9\u773c\u513f HIT OFF","address":"\u4e94\u534e\u533a\u6b63\u4e49\u8def176\u53f7","avgprice":25.0,"latitude":25.04359,"longitude":102.70964,"avgscore":3.5,"comments":2,"backCateName":"\u5496\u5561\u5385","areaname":"\u5357\u5c4f\u6b65\u884c\u8857","region":"\u4e94\u534e\u533a","isMain":false,"city":"\u6606\u660e"},{"index":15973,"id":168422392,"title":"\u4e66\u4ea6\u70e7\u4ed9\u8349","address":"\u5357\u660c\u53bf\u9ad8\u65b0\u6280\u672f\u4ea7\u4e1a\u5f00\u53d1\u533a\u660c\u4e1c\u9547\u7476\u6e56\u897f\u4e8c\u8defC-02\u5916\u8bed\u5916\u8d38\u540e\u8857","avgprice":0.0,"latitude":28.694937,"longitude":116.031284,"avgscore":4.2,"comments":195,"backCateName":"\u5976\u8336\/\u679c\u6c41","areaname":"\u7476\u6e56","phone":null,"region":"\u5357\u660c\u53bf\u9ad8\u65b0\u6280\u672f\u4ea7\u4e1a\u5f00\u53d1\u533a","isMain":true,"city":"\u5357\u660c"},{"index":15686,"id":178887178,"title":"\u53e4\u8317","address":"\u65b0\u5efa\u533a\u6587\u5316\u5927\u9053572\u53f7","avgprice":16.0,"latitude":28.69639,"longitude":115.816585,"avgscore":3.5,"comments":18,"backCateName":"\u5976\u8336\/\u679c\u6c41","areaname":"\u65b0\u5efa\u533a","region":"\u65b0\u5efa\u533a","isMain":true,"city":"\u5357\u660c"},{"index":10321,"id":5414658,"title":"\u56e2\u5b50\u70d8\u7119","address":"\u671d\u9633\u533a\u897f\u671d\u9633\u8def\u4e0e\u4e07\u5b9d\u8857\u4ea4\u6c47\u5f80\u897f20\u7c73\uff08\u8fd1\u4ec1\u51e4\u9601\uff09","avgprice":42.0,"latitude":43.883033,"longitude":125.300967,"avgscore":4.2,"comments":459,"backCateName":"\u9762\u5305\u86cb\u7cd5","areaname":"\u5efa\u8bbe\u8857","region":"\u671d\u9633\u533a","isMain":false,"city":"\u957f\u6625"},{"index":15821,"id":159353477,"title":"\u8d21\u8336","address":"\u897f\u6e56\u533a\u516b\u4e00\u5927\u90531\u53f77\u53f7\u94fa","avgprice":0.0,"latitude":28.66391,"longitude":115.90867,"avgscore":4.0,"comments":75,"backCateName":"\u5976\u8336\/\u679c\u6c41","areaname":"\u897f\u6e56\u533a","region":"\u897f\u6e56\u533a","isMain":true,"city":"\u5357\u660c"},{"index":9958,"id":1120468338,"title":"\u8336\u989c\u4ee5\u6cab","address":"\u51c0\u6708\u5f00\u53d1\u533a\u51c0\u6708\u9ad8\u65b0\u6280\u672f\u4ea7\u4e1a\u5f00\u53d1\u533a\u590d\u5730.\u51c0\u6708\u56fd\u96455.2\u671f\uff08E-4\u533a\uff09","avgprice":0.0,"latitude":43.820934,"longitude":125.425876,"avgscore":3.5,"comments":0,"backCateName":"\u5976\u8336\/\u679c\u6c41","areaname":"\u51c0\u6708\u5f00\u53d1\u533a","region":"\u51c0\u6708\u5f00\u53d1\u533a","isMain":true,"city":"\u957f\u6625"},{"index":17541,"id":90020702,"title":"\u5f20\u963f\u59e8\u5976\u8336","address":"\u91d1\u6c34\u533a\u82b1\u56ed\u8def38\u53f7\u5927\u5546\u65b0\u739b\u72797\u5c42","avgprice":11.0,"latitude":34.785446,"longitude":113.68057,"avgscore":4.9,"comments":616,"backCateName":"\u5976\u8336\/\u679c\u6c41","areaname":"\u56fd\u8d38360","region":"\u91d1\u6c34\u533a","isMain":true,"city":"\u90d1\u5dde"},{"index":7911,"id":51872358,"title":"MUSANG KING\u732b\u5c71\u738b\u69b4\u84ee\u751c\u54c1","address":"\u8d5b\u7f55\u533a\u4e07\u8fbe\u5e7f\u573a\u4e8c\u8857\uff08\u8fa3\u5e84\u6216\u8fa3\u5458\u5916\u897f70\u7c73\u8def\u5357\uff09","avgprice":30.0,"latitude":40.833027,"longitude":111.734772,"avgscore":4.5,"comments":483,"backCateName":"\u897f\u5f0f\u751c\u54c1","areaname":"\u8d5b\u7f55\u533a","region":"\u8d5b\u7f55\u533a","isMain":false,"city":"\u547c\u548c\u6d69\u7279"},{"index":26537,"id":77564033,"title":"\u559c\u5f15\u529b\u00b7\u907f\u98ce\u5858","address":"\u6986\u4e2d\u53bf\u548c\u5e73\u9547\u8881\u5bb6\u8425\u6751\u8587\u4e50\u5927\u9053\u8881\u5bb6\u8425\u793e108\u53f7","avgprice":10.0,"latitude":36.000266,"longitude":103.956493,"avgscore":5.0,"comments":91,"backCateName":"\u5976\u8336\/\u679c\u6c41","areaname":"\u6986\u4e2d\u53bf","region":"\u6986\u4e2d\u53bf\u548c\u5e73\u9547\u8881\u5bb6\u8425\u6751\u8587\u4e50\u5927\u9053\u8881\u5bb6\u8425\u793e108\u53f7\u533a","isMain":true,"city":"\u5170\u5dde"},{"index":2962,"id":517525178,"title":"CoCo\u90fd\u53ef","address":"\u7f57\u6e56\u533a\u9ec4\u8d1d\u8857\u9053\u9ec4\u8d1d\u4e09\u8def9\u53f7\u6df1\u4e1a\u4e1c\u5cad\u82b1\u56ed\u4e8c\u671f9\u53f7\u697c\u5546\u4e1a\u534a\u5730\u4e0b02\u5c42131\u3001132\u3001135\u53f7\u5546\u94fa","avgprice":13.0,"latitude":22.54777,"longitude":114.138702,"avgscore":5.0,"comments":246,"backCateName":"\u5976\u8336\/\u679c\u6c41","areaname":"\u9ec4\u8d1d\u5cad","region":"\u7f57\u6e56\u533a","isMain":true,"city":"\u6df1\u5733"},{"index":16941,"id":179306378,"title":"85\u5ea6C","address":"\u5386\u4e0b\u533a\u5386\u5c71\u8def\u4f18\u54c1\u6c47\u5965\u7279\u83b1\u65af\u4e00\u697c","avgprice":32.0,"latitude":36.658289,"longitude":117.039114,"avgscore":4.0,"comments":1,"backCateName":"\u9762\u5305\u86cb\u7cd5","areaname":"\u5386\u4e0b\u5927\u6da6\u53d1","region":"\u5386\u4e0b\u533a","isMain":false,"city":"\u6d4e\u5357"},{"index":14345,"id":165248600,"title":"Yangyang\u6c99\u62c9\u8f7b\u98df\u51cf\u8102\u5e97","address":"\u653f\u52a1\u533a\u5b8b\u90fd\u897f\u6e56\u82b1\u82d1\u5929\u98ce\u82d13\u5e62102\u3001202\u5ba4","avgprice":0.0,"latitude":31.795277,"longitude":117.222839,"avgscore":3.5,"comments":1,"backCateName":"\u5976\u8336\/\u679c\u6c41","areaname":"\u653f\u52a1\u533a","region":"\u653f\u52a1\u533a","isMain":true,"city":"\u5408\u80a5"},{"index":17083,"id":159503728,"title":"\u5c0f\u80d6\u624b","address":"\u69d0\u836b\u533a\u5367\u9f99\u8def128\u53f7","avgprice":69.0,"latitude":36.63003,"longitude":116.978518,"avgscore":4.9,"comments":41,"backCateName":"\u9762\u5305\u86cb\u7cd5","areaname":"\u9633\u5149\u65b0\u8def","region":"\u69d0\u836b\u533a","isMain":false,"city":"\u6d4e\u5357"},{"index":2151,"id":1167749479,"title":"\u6c11\u5f3a\u8336\u94fa\u00b7\u539f\u521b\u666e\u6d31\u5976\u8336","address":"\u5929\u6cb3\u533a\u82b1\u57ce\u5927\u905389\u53f7\u82b1\u57ce\u6c47\u8d1f\u4e00\u5c422001\u53f7\u81ea\u7f16A018\u94fa\uff08\u548c\u5e9c\u635e\u9762\u5bf9\u9762\uff09","avgprice":14.0,"latitude":23.121131,"longitude":113.325089,"avgscore":4.5,"comments":128,"backCateName":"\u5976\u8336\/\u679c\u6c41","areaname":"\u82b1\u57ce\u6c47\/\u9ad8\u5fb7\u7f6e\u5730","region":"\u5929\u6cb3\u533a","isMain":true,"city":"\u5e7f\u5dde"},{"index":19898,"id":90147379,"title":"\u871c\u96ea\u51b0\u57ce","address":"\u5b81\u4e61\u53bf\u7389\u8c2d\u8857\u9053\u516b\u4e00\u793e\u533a\u6c11\u751f\u8def1\u53f7","avgprice":9.0,"latitude":28.25054,"longitude":112.552559,"avgscore":4.6,"comments":132,"backCateName":"\u5976\u8336\/\u679c\u6c41","areaname":"\u6b65\u884c\u8857","region":"\u5b81\u4e61\u53bf\u7389\u8c2d\u8857\u9053\u516b\u4e00\u793e\u533a","isMain":true,"city":"\u957f\u6c99"},{"index":1028,"id":541857557,"title":"ICE MONSTER","address":"\u9ec4\u6d66\u533a\u5f90\u5bb6\u6c47\u8def618\u53f7\u65e5\u6708\u5149\u4e2d\u5fc31\u5c421F-CG-10\uff08\u9760\u8fd1\u5939\u673a\u5360\uff0c\u732b\u5c4e\u5496\u5561\u5bf9\u9762\u7684\u901a\u9053\u5185\uff09","avgprice":26.0,"latitude":31.20714,"longitude":121.46901,"avgscore":4.2,"comments":12,"backCateName":"\u51b0\u6dc7\u6dcb","areaname":"\u65e5\u6708\u5149\u4e2d\u5fc3\u5e7f\u573a","region":"\u9ec4\u6d66\u533a","isMain":false,"city":"\u4e0a\u6d77"},{"index":6409,"id":52180291,"title":"\u679c\u7136\u7231","address":"\u683e\u57ce\u533a\u6cf0\u5b89\u8857\u4e0e\u9686\u5b89\u8def\u4ea4\u53e3\u5317\u884c50\u7c73\u8def\u4e1c","avgprice":5.0,"latitude":37.88985,"longitude":114.65157,"avgscore":5.0,"comments":172,"backCateName":"\u51b0\u6dc7\u6dcb","areaname":"\u683e\u57ce\u533a\u4e2d\u5fc3\u57ce\u533a","region":"\u683e\u57ce\u533a","isMain":false,"city":"\u77f3\u5bb6\u5e84"},{"index":4075,"id":1062343638,"title":"\u706b\u661f\u8336","address":"\u5b9d\u577b\u533a\u5357\u5173\u5927\u88577\u53f7","avgprice":11.0,"latitude":39.722467,"longitude":117.306143,"avgscore":3.5,"comments":7,"backCateName":"\u5976\u8336\/\u679c\u6c41","areaname":"\u767e\u8d27\u5927\u697c","region":"\u5b9d\u577b\u533a","isMain":true,"city":"\u5929\u6d25"},{"index":12301,"id":192977088,"title":"7\u5206\u751c","address":"\u6ea7\u6c34\u533a\u6c38\u9633\u8857\u9053\u5e78\u5e84\u8def\u4e07\u8fbe\u5e7f\u573a\u5ba4\u5185\u6b65\u884c\u88574f4060\u5ba4","avgprice":21.0,"latitude":31.626178,"longitude":119.047302,"avgscore":4.0,"comments":1,"backCateName":"\u5976\u8336\/\u679c\u6c41","areaname":"\u4e07\u8fbe\u5e7f\u573a","region":"\u6ea7\u6c34\u533a","isMain":true,"city":"\u5357\u4eac"},{"index":26059,"id":658847,"title":"\u5fa1\u54c1\u8f69","address":"\u7891\u6797\u533a\u54b8\u5b81\u897f\u8def28\u53f7\u4ea4\u5927\u4e00\u67515\u820d\uff08\u7fe0\u5ead\u5927\u53a6\u659c\u5bf9\u9762\uff09","avgprice":18.0,"latitude":34.250846,"longitude":108.990412,"avgscore":4.1,"comments":1405,"backCateName":"\u9762\u5305\u86cb\u7cd5","areaname":"\u5efa\u5de5\u8def","region":"\u7891\u6797\u533a","isMain":false,"city":"\u897f\u5b89"},{"index":7963,"id":4193001,"title":"\u8001\u7ee5\u5143\u70e7\u9ea6","address":"\u65b0\u57ce\u533a\u5c55\u89c8\u9986\u4e1c\u8def13\u53f7","avgprice":39.0,"latitude":40.847415,"longitude":111.714699,"avgscore":4.7,"comments":646,"backCateName":"\u897f\u5317\u83dc","areaname":"\u65b0\u57ce\u533a","region":"\u65b0\u57ce\u533a","isMain":false,"city":"\u547c\u548c\u6d69\u7279"},{"index":119,"id":330194,"title":"DQ","address":"\u671d\u9633\u533a\u91d1\u8749\u6b22\u4e50\u56ed2\u53f7\u9662\u75321\u53f7\u697c\uff08\u6b22\u4e50\u8c37\u5bf9\u9762\uff09","avgprice":29.0,"latitude":39.865844,"longitude":116.500464,"avgscore":4.7,"comments":382,"backCateName":"\u51b0\u6dc7\u6dcb","areaname":"\u5317\u4eac\u6b22\u4e50\u8c37","region":"\u671d\u9633\u533a","isMain":false,"city":"\u5317\u4eac"},{"index":24158,"id":1744855139,"title":"\u732b\u54aa\u68ee\u6797\u00b7\u732b\u5427\u00b7\u5976\u8336\u00b7\u732b\u5496","address":"\u76d8\u9f99\u533a\u4e07\u534e\u8def\u5929\u5b87\u82b1\u56edC07\u53f7\u5546\u94fa","avgprice":36.0,"latitude":25.062226,"longitude":102.716553,"avgscore":5.0,"comments":77,"backCateName":"\u5976\u8336\/\u679c\u6c41","areaname":"\u6ee8\u6c5f\u4fca\u56ed","region":"\u76d8\u9f99\u533a","isMain":true,"city":"\u6606\u660e"},{"index":1369,"id":81100682,"title":"CoCo\u90fd\u53ef","address":"\u95f5\u884c\u533a\u90fd\u5e02\u8def3759\u53f7\u91d1\u90fd\u5e97B2\u5c42SHMHJD-1001\u94fa","avgprice":13.0,"latitude":31.085384,"longitude":121.399062,"avgscore":4.9,"comments":140,"backCateName":"\u5976\u8336\/\u679c\u6c41","areaname":"\u6625\u7533\u5730\u533a","region":"\u95f5\u884c\u533a","isMain":true,"city":"\u4e0a\u6d77"},{"index":24575,"id":156865613,"title":"\u5feb\u4e50\u756a\u85af","address":"\u4e94\u534e\u533a\u5927\u89c2\u5546\u4e1a\u57ce\u897f\u95e8\u7f8e\u98df\u885714-1\u53f7","avgprice":14.0,"latitude":25.041362,"longitude":102.695686,"avgscore":4.2,"comments":14,"backCateName":"\u5976\u8336\/\u679c\u6c41","areaname":"\u5c0f\u897f\u95e8","region":"\u4e94\u534e\u533a","isMain":true,"city":"\u6606\u660e"},{"index":17856,"id":158375826,"title":"\u6162\u8336","address":"\u91d1\u6c34\u533a\u7ecf\u4e8c\u8def\u749e\u4e3d\u4e2d\u5fc3\u4e00\u697cC\u680b\u516c\u5bd3\u65c1","avgprice":14.0,"latitude":34.775837,"longitude":113.696066,"avgscore":4.6,"comments":789,"backCateName":"\u5976\u8336\/\u679c\u6c41","areaname":"\u7ecf\u4e09\u8def\u6cbf\u7ebf","region":"\u91d1\u6c34\u533a","isMain":true,"city":"\u90d1\u5dde"},{"index":21202,"id":743123549,"title":"\u6caa\u4e0a\u963f\u59e8\u73b0\u716e\u8336\u996e","address":"\u7f8e\u5170\u533a\u5357\u5b9d\u8def28\u53f7","avgprice":14.0,"latitude":20.026,"longitude":110.344091,"avgscore":4.4,"comments":7,"backCateName":"\u5976\u8336\/\u679c\u6c41","areaname":"\u84dd\u5929\u8def\u6cbf\u7ebf","region":"\u7f8e\u5170\u533a","isMain":true,"city":"\u6d77\u53e3"}]